,City,Country,Date,Lat,Lng,Max Temp,Humidity,Cloudiness,Wind Speed,Current Description
0,Karratha,AU,2021-03-27 00:09:50,-20.7377,116.8463,82.78,65,0,4.45,clear sky
1,Bonthe,SL,2021-03-27 00:09:51,7.5264,-12.505,78.39,89,5,5.08,clear sky
2,Hasaki,JP,2021-03-27 00:09:51,35.7333,140.8333,54.0,58,40,3.44,scattered clouds
3,Bulolo,PG,2021-03-27 00:09:52,-7.2,146.65,83.08,66,95,3.36,overcast clouds
4,Cape Town,ZA,2021-03-27 00:06:05,-33.9258,18.4232,63.0,94,75,9.22,light rain
5,Ilulissat,GL,2021-03-27 00:09:53,69.2167,-51.1,-13.0,48,10,7.29,clear sky
6,Avera,US,2021-03-27 00:09:53,33.194,-82.5271,68.0,94,90,4.97,mist
7,Kapaa,US,2021-03-27 00:09:53,22.0752,-159.319,80.01,78,75,9.22,light rain
8,Constitucion,CL,2021-03-27 00:09:05,-35.3333,-72.4167,57.94,74,0,11.7,clear sky
9,Victoria,HK,2021-03-27 00:07:09,22.2855,114.1577,73.0,86,100,10.45,overcast clouds
10,Manavalakurichi,IN,2021-03-27 00:09:55,8.1333,77.3,82.4,78,40,7.18,mist
11,Port Alfred,ZA,2021-03-27 00:09:55,-33.5906,26.891,69.37,84,86,24.2,overcast clouds
12,Thompson,CA,2021-03-27 00:09:55,55.7435,-97.8558,24.8,80,90,14.97,snow
13,Katherine,AU,2021-03-27 00:09:56,-14.4667,132.2667,86.0,70,100,3.44,overcast clouds
14,Lagodekhi,GE,2021-03-27 00:09:56,41.8268,46.2767,44.6,76,75,4.61,broken clouds
15,Dikson,RU,2021-03-27 00:09:57,73.5069,80.5464,-13.72,100,100,10.0,overcast clouds
16,Narsaq,GL,2021-03-27 00:09:57,60.9167,-46.05,5.0,51,20,9.22,few clouds
17,Trinidad,BO,2021-03-27 00:09:58,-14.8333,-64.9,82.4,83,40,4.61,scattered clouds
18,Bathsheba,BB,2021-03-27 00:09:58,13.2167,-59.5167,77.0,65,40,21.85,scattered clouds
19,Puerto Ayora,EC,2021-03-27 00:09:58,-0.7393,-90.3518,80.01,86,67,5.99,broken clouds
20,Barrow,US,2021-03-27 00:09:59,71.2906,-156.7887,-9.4,70,1,3.44,clear sky
21,Carutapera,BR,2021-03-27 00:09:59,-1.195,-46.02,73.24,95,100,1.81,overcast clouds
22,Vaini,TO,2021-03-27 00:09:59,-21.2,-175.2,84.2,74,40,10.36,light rain
23,Bredasdorp,ZA,2021-03-27 00:10:00,-34.5322,20.0403,64.4,77,9,8.05,clear sky
24,Atasu,KZ,2021-03-27 00:10:00,48.6814,71.6433,34.07,99,100,9.82,overcast clouds
25,Sur,OM,2021-03-27 00:10:01,22.5667,59.5289,78.12,54,95,2.93,overcast clouds
26,Poykovskiy,RU,2021-03-27 00:10:01,61.2333,73.3333,24.8,100,0,6.71,clear sky
27,Eura,FI,2021-03-27 00:10:01,61.1333,22.1333,35.6,93,90,12.66,mist
28,Albany,US,2021-03-27 00:05:51,42.6001,-73.9662,48.99,71,71,3.0,broken clouds
29,Ushuaia,AR,2021-03-27 00:09:05,-54.8,-68.3,50.0,62,75,5.75,broken clouds
30,Sao Filipe,CV,2021-03-27 00:10:04,14.8961,-24.4956,70.52,75,12,18.19,few clouds
31,Aklavik,CA,2021-03-27 00:10:05,68.2191,-135.0107,-0.4,65,92,9.22,overcast clouds
32,Castro,BR,2021-03-27 00:10:05,-24.7911,-50.0119,64.76,92,59,3.09,broken clouds
33,Jieshi,CN,2021-03-27 00:10:06,22.8134,115.8257,71.01,77,100,8.7,overcast clouds
34,Nikolskoye,RU,2021-03-27 00:10:06,59.7035,30.7861,34.0,93,40,2.46,mist
35,Rikitea,PF,2021-03-27 00:10:07,-23.1203,-134.9692,79.0,72,1,17.92,light rain
36,Biak,ID,2021-03-27 00:10:08,-0.9131,122.8766,74.37,94,100,3.85,overcast clouds
37,Rawson,AR,2021-03-27 00:10:09,-43.3002,-65.1023,60.3,63,1,7.25,clear sky
38,Grindavik,IS,2021-03-27 00:10:09,63.8424,-22.4338,17.6,67,40,10.36,scattered clouds
39,Saint George,US,2021-03-27 00:05:11,37.1041,-113.5841,60.01,25,1,20.71,clear sky
40,Ca Mau,VN,2021-03-27 00:07:18,9.1769,105.15,81.64,73,84,9.98,broken clouds
41,Punta,PH,2021-03-27 00:10:10,8.9897,125.34,80.76,69,99,2.51,overcast clouds
42,Kiruna,SE,2021-03-27 00:10:11,67.8557,20.2251,30.2,80,100,6.91,overcast clouds
43,West Bay,KY,2021-03-27 00:10:12,19.3667,-81.4167,82.4,74,20,10.36,few clouds
44,Cherskiy,RU,2021-03-27 00:10:12,68.75,161.3,-5.73,89,92,8.55,overcast clouds
45,Makakilo City,US,2021-03-27 00:10:13,21.3469,-158.0858,82.4,69,90,8.05,overcast clouds
46,Gariaband,IN,2021-03-27 00:10:13,20.635,82.0614,69.4,25,0,1.52,clear sky
47,Huicheng,CN,2021-03-27 00:10:14,23.0385,116.2899,64.4,88,40,3.65,scattered clouds
48,Savelugu,GH,2021-03-27 00:10:13,9.6244,-0.8253,93.52,21,88,4.7,overcast clouds
49,Hilo,US,2021-03-27 00:10:14,19.7297,-155.09,80.6,54,75,11.5,broken clouds
50,Atuona,PF,2021-03-27 00:10:15,-9.8,-139.0333,80.92,75,27,19.3,scattered clouds
51,Tanete,ID,2021-03-27 00:10:15,-3.9443,119.7848,78.49,87,99,1.28,light rain
52,Sinop,TR,2021-03-27 00:10:16,41.7711,34.8709,32.63,96,100,4.63,light snow
53,Harper,LR,2021-03-27 00:09:16,4.375,-7.7169,78.3,90,1,7.07,clear sky
54,Kruisfontein,ZA,2021-03-27 00:10:16,-34.0033,24.7314,64.0,71,13,1.99,few clouds
55,Butaritari,KI,2021-03-27 00:10:17,3.0707,172.7902,81.77,76,29,13.06,scattered clouds
56,Lompoc,US,2021-03-27 00:07:50,34.6391,-120.4579,61.0,72,20,14.97,few clouds
57,Ayagoz,KZ,2021-03-27 00:10:17,47.9714,80.4392,33.49,99,100,4.94,overcast clouds
58,Jumla,NP,2021-03-27 00:10:17,29.2747,82.1838,43.83,40,0,4.99,clear sky
59,Lebu,CL,2021-03-27 00:10:19,-37.6167,-73.65,55.8,77,0,19.98,clear sky
60,Hobart,AU,2021-03-27 00:07:10,-42.8794,147.3294,60.01,82,75,5.75,broken clouds
61,Kropotkin,RU,2021-03-27 00:10:19,45.4375,40.5756,37.0,90,100,6.58,overcast clouds
62,Yellowknife,CA,2021-03-27 00:09:31,62.456,-114.3525,16.0,67,20,11.5,few clouds
63,Bluff,NZ,2021-03-27 00:10:20,-46.6,168.3333,57.69,80,100,6.46,heavy intensity rain
64,Luganville,VU,2021-03-27 00:10:20,-15.5333,167.1667,84.63,71,68,7.81,broken clouds
65,Upernavik,GL,2021-03-27 00:10:21,72.7868,-56.1549,-33.0,83,6,4.61,clear sky
66,Komsomolskiy,UZ,2021-03-27 00:10:21,40.4272,71.7189,51.8,93,75,4.61,mist
67,Hithadhoo,MV,2021-03-27 00:10:22,-0.6,73.0833,82.42,71,65,7.23,broken clouds
68,San Cristobal,VE,2021-03-27 00:10:23,7.7669,-72.225,71.6,100,75,2.3,fog
69,Qaanaaq,GL,2021-03-27 00:10:24,77.484,-69.3632,-9.45,65,100,4.83,overcast clouds
70,Tuatapere,NZ,2021-03-27 00:10:25,-46.1333,167.6833,60.76,70,100,5.66,moderate rain
71,Ponta Do Sol,PT,2021-03-27 00:10:25,32.6667,-17.1,64.4,94,40,9.22,scattered clouds
72,Numan,NG,2021-03-27 00:10:26,9.4667,12.0333,82.83,15,92,5.26,overcast clouds
73,Faanui,PF,2021-03-27 00:10:27,-16.4833,-151.75,82.89,73,8,22.15,light rain
74,San Policarpo,PH,2021-03-27 00:10:28,12.1791,125.5072,81.07,80,79,11.99,broken clouds
75,Pokosnoye,RU,2021-03-27 00:10:28,55.5258,101.0536,22.35,92,85,7.72,overcast clouds
76,Sumbe,AO,2021-03-27 00:10:29,-11.2061,13.8437,76.3,80,97,2.21,overcast clouds
77,Changji,CN,2021-03-27 00:10:29,44.0167,87.3167,44.6,76,75,4.47,broken clouds
78,Kushmurun,KZ,2021-03-27 00:10:29,52.4503,64.6311,28.27,97,100,6.29,light snow
79,Darnah,LY,2021-03-27 00:10:30,32.767,22.6367,52.45,62,19,5.03,few clouds
80,Margate,GB,2021-03-27 00:10:31,51.3813,1.3862,41.0,76,73,4.0,broken clouds
81,Zhigansk,RU,2021-03-27 00:10:31,66.7697,123.3711,12.15,93,100,21.52,light snow
82,Calama,CL,2021-03-27 00:10:31,-22.4667,-68.9333,64.4,24,0,14.97,clear sky
83,Wodonga,AU,2021-03-27 00:10:32,-36.1167,146.8833,63.0,88,75,3.44,broken clouds
84,Punta Arenas,CL,2021-03-27 00:10:32,-53.15,-70.9167,51.01,71,75,8.05,broken clouds
85,Camacha,PT,2021-03-27 00:10:33,33.0833,-16.3333,62.6,94,40,12.66,scattered clouds
86,Meulaboh,ID,2021-03-27 00:07:16,4.1363,96.1285,76.14,84,98,2.64,overcast clouds
87,Gat,IL,2021-03-27 00:10:34,31.61,34.7642,52.0,100,99,1.99,overcast clouds
88,Nanakuli,US,2021-03-27 00:10:34,21.3906,-158.1547,80.6,69,90,8.05,overcast clouds
89,Mecca,SA,2021-03-27 00:09:09,21.4267,39.8261,70.9,52,0,7.61,clear sky
90,Busselton,AU,2021-03-27 00:10:35,-33.65,115.3333,55.0,91,83,5.59,broken clouds
91,Chuy,UY,2021-03-27 00:10:36,-33.6971,-53.4616,67.78,94,100,5.79,overcast clouds
92,Amga,RU,2021-03-27 00:10:36,60.8953,131.9608,21.85,88,100,5.32,overcast clouds
93,Ahipara,NZ,2021-03-27 00:10:37,-35.1667,173.1667,70.09,73,88,15.37,overcast clouds
94,Mataura,NZ,2021-03-27 00:10:37,-46.1927,168.8643,61.32,65,100,3.96,light rain
95,New Norfolk,AU,2021-03-27 00:10:37,-42.7826,147.0587,60.01,88,100,5.99,light rain
96,Dicabisagan,PH,2021-03-27 00:10:38,17.0818,122.4157,79.0,81,81,1.54,broken clouds
97,Broken Hill,AU,2021-03-27 00:10:38,-31.95,141.4333,66.2,68,1,12.66,clear sky
98,Kodiak,US,2021-03-27 00:10:39,57.79,-152.4072,37.4,44,20,8.05,few clouds
99,Timbiras,BR,2021-03-27 00:10:39,-4.2553,-43.9406,73.0,98,99,2.68,moderate rain
100,Juneau,US,2021-03-27 00:06:18,58.3019,-134.4197,37.4,87,90,11.5,light snow
101,Thinadhoo,MV,2021-03-27 00:10:40,0.5333,72.9333,81.39,70,69,4.72,broken clouds
102,Manthani,IN,2021-03-27 00:08:28,18.65,79.6667,78.37,37,1,5.5,clear sky
103,Moroni,KM,2021-03-27 00:10:41,-11.7022,43.2551,80.29,77,17,2.1,few clouds
104,Port Blair,IN,2021-03-27 00:10:41,11.6667,92.75,82.27,72,92,9.04,overcast clouds
105,Tezu,IN,2021-03-27 00:10:41,27.9167,96.1667,68.04,22,7,4.88,clear sky
106,Wajir,KE,2021-03-27 00:10:42,1.7471,40.0573,79.02,65,52,14.88,broken clouds
107,Redlands,US,2021-03-27 00:06:22,34.0556,-117.1825,73.4,13,1,12.66,clear sky
108,Saint-Georges,GD,2021-03-27 00:10:18,12.0564,-61.7485,78.8,78,20,11.5,few clouds
109,Mahebourg,MU,2021-03-27 00:10:43,-20.4081,57.7,75.2,88,20,6.91,few clouds
110,Effingham,US,2021-03-27 00:10:43,32.3669,-81.3332,79.0,69,75,11.5,broken clouds
111,Methven,NZ,2021-03-27 00:10:44,-43.6333,171.65,81.0,38,51,5.01,broken clouds
112,Jamestown,US,2021-03-27 00:07:02,42.097,-79.2353,43.0,93,90,12.3,overcast clouds
113,Cardston,CA,2021-03-27 00:10:44,49.2,-113.3019,42.8,42,50,10.36,scattered clouds
114,Kardla,EE,2021-03-27 00:10:45,58.9978,22.7492,37.02,72,83,7.81,broken clouds
115,Touros,BR,2021-03-27 00:10:46,-5.1989,-35.4608,75.2,88,75,5.75,broken clouds
116,Bethel,US,2021-03-27 00:05:57,41.3712,-73.414,68.0,37,75,19.57,broken clouds
117,Poplar Bluff,US,2021-03-27 00:10:46,36.757,-90.3929,64.0,59,1,4.61,clear sky
118,Fengzhen,CN,2021-03-27 00:10:47,40.4394,113.1536,44.22,66,0,4.38,clear sky
119,La Ligua,CL,2021-03-27 00:10:47,-32.4524,-71.2311,66.2,52,0,5.75,clear sky
120,Hermanus,ZA,2021-03-27 00:10:48,-34.4187,19.2345,62.01,93,42,11.56,light rain
121,Mazagao,BR,2021-03-27 00:07:07,-0.115,-51.2894,80.6,89,20,6.91,few clouds
122,Kilindoni,TZ,2021-03-27 00:10:49,-7.9139,39.6668,82.51,71,89,2.82,light rain
123,Aden,YE,2021-03-27 00:07:14,12.7794,45.0367,78.31,69,80,12.82,broken clouds
124,Clyde River,CA,2021-03-27 00:10:50,70.4692,-68.5914,-14.8,70,75,5.35,broken clouds
125,Gimli,CA,2021-03-27 00:10:50,50.6336,-96.9907,35.6,69,93,6.91,overcast clouds
126,Khani,GE,2021-03-27 00:10:51,41.9563,42.9566,39.2,93,90,5.75,overcast clouds
127,Coahuayana,MX,2021-03-27 00:10:51,18.7333,-103.6833,75.2,53,75,5.17,broken clouds
128,Avarua,CK,2021-03-27 00:10:51,-21.2078,-159.775,84.2,70,75,14.97,broken clouds
129,Vigrestad,NO,2021-03-27 00:10:52,58.5667,5.7,41.0,94,100,1.01,overcast clouds
130,Fort Nelson,CA,2021-03-27 00:10:52,58.8053,-122.7002,39.2,52,75,8.05,broken clouds
131,Arraial Do Cabo,BR,2021-03-27 00:10:53,-22.9661,-42.0278,78.8,83,0,6.91,clear sky
132,Madimba,TZ,2021-03-27 00:10:53,-10.4,40.3333,76.35,91,100,4.97,moderate rain
133,East London,ZA,2021-03-27 00:08:16,-33.0153,27.9116,68.97,85,63,17.58,broken clouds
134,Yulara,AU,2021-03-27 00:10:53,-25.2406,130.9889,78.8,53,40,6.91,scattered clouds
135,Airai,TL,2021-03-27 00:10:54,-8.9266,125.4092,67.68,76,95,2.21,overcast clouds
136,Saint-Philippe,RE,2021-03-27 00:10:55,-21.3585,55.7679,77.0,73,24,5.75,few clouds
137,Barranca,PE,2021-03-27 00:10:55,-10.75,-77.7667,70.39,78,43,6.87,scattered clouds
138,Sestri Levante,IT,2021-03-27 00:10:56,44.2732,9.3968,54.0,94,98,5.39,overcast clouds
139,Nanortalik,GL,2021-03-27 00:10:56,60.1432,-45.2371,7.47,69,27,25.14,scattered clouds
140,Kluczbork,PL,2021-03-27 00:10:57,50.9728,18.2182,46.99,61,40,3.0,scattered clouds
141,Harmanli,BG,2021-03-27 00:10:57,41.9333,25.9,41.0,60,74,2.44,broken clouds
142,San Rafael,AR,2021-03-27 00:09:22,-34.6177,-68.3301,58.98,41,40,5.3,scattered clouds
143,Esperance,AU,2021-03-27 00:10:58,-33.8667,121.9,57.2,88,0,12.66,clear sky
144,Tuktoyaktuk,CA,2021-03-27 00:10:58,69.4541,-133.0374,-7.6,77,40,6.91,scattered clouds
145,Spring Hill,US,2021-03-27 00:09:05,28.4769,-82.5255,80.01,65,1,5.75,clear sky
146,Fukue,JP,2021-03-27 00:10:59,32.6881,128.8419,64.4,82,75,12.66,broken clouds
147,Mozarlandia,BR,2021-03-27 00:10:59,-14.7447,-50.5706,74.84,55,95,4.07,overcast clouds
148,Tandil,AR,2021-03-27 00:06:47,-37.3217,-59.1332,62.01,93,100,4.0,light rain
149,Markova,UA,2021-03-27 00:11:00,48.6758,24.4138,32.63,86,98,4.79,overcast clouds
150,Sioux Lookout,CA,2021-03-27 00:11:00,50.1001,-91.917,37.4,52,90,8.05,overcast clouds
151,Khatanga,RU,2021-03-27 00:11:01,71.9667,102.5,-11.4,97,92,2.59,overcast clouds
152,Pevek,RU,2021-03-27 00:11:01,69.7008,170.3133,-20.0,93,82,5.1,broken clouds
153,Leshukonskoye,RU,2021-03-27 00:11:02,64.8989,45.7622,12.7,98,70,2.08,broken clouds
154,Santa Isabel,BR,2021-03-27 00:11:02,-23.3156,-46.2214,77.0,100,0,0.65,clear sky
155,Qui Nhon,VN,2021-03-27 00:08:56,13.7667,109.2333,75.99,86,87,2.28,overcast clouds
156,Torbay,CA,2021-03-27 00:11:03,47.6666,-52.7314,44.01,93,90,17.27,overcast clouds
157,Camana,PE,2021-03-27 00:11:03,-16.6228,-72.7111,70.93,79,97,5.95,overcast clouds
158,Kalmunai,LK,2021-03-27 00:09:15,7.4167,81.8167,78.21,87,98,1.07,moderate rain
159,Itoman,JP,2021-03-27 00:11:04,26.1247,127.6694,73.4,73,40,14.97,scattered clouds
160,Kutum,SD,2021-03-27 00:11:04,14.2,24.6667,65.91,19,83,13.69,broken clouds
161,Igrim,RU,2021-03-27 00:11:05,63.1906,64.4162,27.41,91,85,10.38,light snow
162,College,US,2021-03-27 00:11:05,64.8569,-147.8028,28.0,54,90,6.91,overcast clouds
163,Beaverlodge,CA,2021-03-27 00:11:06,55.2166,-119.4361,37.4,52,75,2.3,broken clouds
164,Tarauaca,BR,2021-03-27 00:11:07,-8.1614,-70.7656,74.37,97,70,2.33,broken clouds
165,La Paz,BO,2021-03-27 00:11:00,-16.5,-68.15,44.6,81,75,3.44,broken clouds
166,Anadyr,RU,2021-03-27 00:11:07,64.75,177.4833,0.0,78,0,8.95,clear sky
167,Sharqpur,PK,2021-03-27 00:11:08,31.4633,74.1,66.2,72,0,4.61,smoke
168,Puerto Escondido,MX,2021-03-27 00:11:08,15.85,-97.0667,82.4,74,40,3.44,scattered clouds
169,Guangyuan,CN,2021-03-27 00:11:09,32.442,105.823,57.0,92,100,0.76,overcast clouds
170,Inhambane,MZ,2021-03-27 00:11:09,-23.865,35.3833,74.86,86,30,9.06,light rain
171,Alice Springs,AU,2021-03-27 00:11:09,-23.7,133.8833,87.01,53,33,3.44,scattered clouds
172,Ribeira Grande,PT,2021-03-27 00:11:10,38.5167,-28.7,57.72,60,26,5.79,scattered clouds
173,Coroico,BO,2021-03-27 00:11:10,-16.1889,-67.7271,44.6,81,75,3.44,broken clouds
174,Severo-Kurilsk,RU,2021-03-27 00:11:11,50.6789,156.125,26.15,94,100,21.23,snow
175,Zelenogradsk,RU,2021-03-27 00:11:12,54.9589,20.4767,42.01,75,14,6.71,few clouds
176,Coquimbo,CL,2021-03-27 00:11:12,-29.9533,-71.3436,57.2,88,0,5.75,clear sky
177,Tuni,IN,2021-03-27 00:11:12,17.35,82.55,74.43,73,33,2.91,scattered clouds
178,Aykhal,RU,2021-03-27 00:11:13,66.0,111.5,10.81,94,100,6.89,overcast clouds
179,Port Elizabeth,ZA,2021-03-27 00:11:13,-33.918,25.5701,68.0,68,0,19.57,clear sky
180,Williams Lake,CA,2021-03-27 00:09:01,52.1415,-122.1445,46.0,75,90,3.44,overcast clouds
181,Naifaru,MV,2021-03-27 00:11:14,5.4444,73.3657,83.86,74,100,16.53,overcast clouds
182,Sabha,LY,2021-03-27 00:11:14,27.0377,14.4283,54.19,39,0,10.69,clear sky
183,Puerto Madero,MX,2021-03-27 00:11:15,14.7208,-92.4215,86.0,66,75,6.91,broken clouds
184,Necochea,AR,2021-03-27 00:11:15,-38.5473,-58.7368,62.01,86,100,7.0,overcast clouds
185,Bayanday,RU,2021-03-27 00:11:15,53.0661,105.5139,27.86,84,100,13.33,overcast clouds
186,Vila,PT,2021-03-27 00:11:16,42.0304,-8.1588,46.0,86,90,5.01,overcast clouds
187,Edd,ER,2021-03-27 00:11:16,13.9297,41.6925,81.34,43,1,7.56,clear sky
188,Ko Samui,TH,2021-03-27 00:11:17,9.5357,99.9357,82.99,75,44,10.85,scattered clouds
189,Ust-Nera,RU,2021-03-27 00:11:17,64.5667,143.2,-3.21,90,100,3.78,overcast clouds
190,Souillac,MU,2021-03-27 00:11:18,-20.5167,57.5167,75.2,88,20,6.91,few clouds
191,Kavieng,PG,2021-03-27 00:11:18,-2.5744,150.7967,83.28,73,99,10.18,light rain
192,Kununurra,AU,2021-03-27 00:11:19,-15.7667,128.7333,82.4,94,50,3.44,light rain
193,Te Anau,NZ,2021-03-27 00:11:19,-45.4167,167.7167,64.67,55,100,4.68,moderate rain
194,Ayan,RU,2021-03-27 00:11:19,56.45,138.1667,11.82,86,63,4.92,broken clouds
195,Usinsk,RU,2021-03-27 00:11:20,65.9939,57.5281,13.21,94,77,11.63,broken clouds
196,Carnarvon,AU,2021-03-27 00:11:20,-24.8667,113.6333,77.0,65,100,12.66,overcast clouds
197,Tuy Hoa,VN,2021-03-27 00:11:21,13.0833,109.3,76.37,86,88,2.3,overcast clouds
198,Sept-Iles,CA,2021-03-27 00:10:05,50.2001,-66.3821,32.0,51,100,16.11,overcast clouds
199,San Jose,US,2021-03-27 00:11:16,37.3394,-121.895,72.0,23,1,11.5,clear sky
200,Taoudenni,ML,2021-03-27 00:11:22,22.6783,-3.9836,72.39,8,4,12.5,clear sky
201,Kemijarvi,FI,2021-03-27 00:11:22,66.7131,27.4306,30.06,95,98,7.65,overcast clouds
202,Hambantota,LK,2021-03-27 00:11:23,6.1241,81.1185,78.64,84,99,10.07,light rain
203,Lewistown,US,2021-03-27 00:11:23,40.5992,-77.5714,53.6,66,1,8.05,clear sky
204,Chokurdakh,RU,2021-03-27 00:11:23,70.6333,147.9167,-16.28,96,83,5.48,broken clouds
205,Longyearbyen,SJ,2021-03-27 00:11:24,78.2186,15.6401,17.6,73,20,25.32,snow
206,Port-Gentil,GA,2021-03-27 00:11:24,-0.7193,8.7815,80.6,83,20,9.22,light rain
207,Vuktyl,RU,2021-03-27 00:11:25,63.8567,57.3094,16.59,96,95,5.48,overcast clouds
208,San Patricio,US,2021-03-27 00:11:25,28.017,-97.5169,78.8,69,40,18.41,scattered clouds
209,Mar Del Plata,AR,2021-03-27 00:09:42,-38.0023,-57.5575,64.99,88,75,27.63,mist
210,Okhotsk,RU,2021-03-27 00:11:26,59.3833,143.3,3.72,84,37,6.11,scattered clouds
211,Cabedelo,BR,2021-03-27 00:11:26,-6.9811,-34.8339,75.2,100,40,5.75,scattered clouds
212,Broome,US,2021-03-27 00:11:27,42.2506,-75.833,46.4,71,90,12.66,overcast clouds
213,Westport,US,2021-03-27 00:07:08,41.1415,-73.3579,68.0,40,1,26.46,haze
214,Novo Selo,MK,2021-03-27 00:11:28,41.4139,22.8811,36.0,82,4,3.53,clear sky
215,Betul,IN,2021-03-27 00:11:28,21.9153,77.8961,72.01,14,0,2.04,clear sky
216,Lagoa,PT,2021-03-27 00:11:28,39.05,-27.9833,56.79,61,48,7.74,scattered clouds
217,Mungwi,ZM,2021-03-27 00:11:29,-10.1732,31.3694,60.39,96,98,2.68,light rain
218,Anjiang,CN,2021-03-27 00:11:29,27.3194,110.1031,63.79,98,100,2.53,overcast clouds
219,Forbes,AU,2021-03-27 00:11:29,-33.3833,148.0167,70.0,61,22,5.01,few clouds
220,Montepuez,MZ,2021-03-27 00:11:30,-13.1256,38.9997,68.04,98,43,2.64,scattered clouds
221,Barcelona,ES,2021-03-27 00:09:14,41.3888,2.159,57.99,88,20,6.91,few clouds
222,Mizdah,LY,2021-03-27 00:09:16,31.4451,12.9801,48.76,70,0,7.23,clear sky
223,Sitka,US,2021-03-27 00:11:30,57.0531,-135.33,42.8,81,90,3.44,light rain
224,Maryville,US,2021-03-27 00:11:31,35.7565,-83.9705,69.8,35,75,5.75,broken clouds
225,Vestmanna,FO,2021-03-27 00:11:32,62.1564,-7.1664,39.2,48,40,13.8,scattered clouds
226,Amarante Do Maranhao,BR,2021-03-27 00:11:32,-5.5667,-46.7422,72.18,95,86,0.98,moderate rain
227,Orange,US,2021-03-27 00:07:39,33.7,-117.7675,63.0,55,20,8.05,few clouds
228,Novaya Mayna,RU,2021-03-27 00:11:33,54.15,49.75,30.2,80,100,6.71,overcast clouds
229,Comodoro Rivadavia,AR,2021-03-27 00:09:16,-45.8667,-67.5,57.2,88,0,4.61,clear sky
230,Dingli,MT,2021-03-27 00:11:34,35.8614,14.3822,54.0,87,0,3.44,clear sky
231,Waingapu,ID,2021-03-27 00:11:35,-9.6567,120.2641,80.71,76,100,3.58,overcast clouds
232,Valdivia,CL,2021-03-27 00:11:35,-39.8142,-73.2459,53.6,76,81,3.44,broken clouds
233,Umm Lajj,SA,2021-03-27 00:11:36,25.0213,37.2685,67.06,49,1,14.99,clear sky
234,Pangobilian,PH,2021-03-27 00:11:36,8.8011,117.8594,82.27,74,52,8.14,broken clouds
235,Houston,US,2021-03-27 00:07:17,29.7633,-95.3633,79.0,64,1,16.11,clear sky
236,Urmary,RU,2021-03-27 00:11:37,55.6789,47.944,32.0,80,0,4.47,clear sky
237,Saint-Joseph,RE,2021-03-27 00:11:37,-21.3667,55.6167,77.0,73,0,4.61,clear sky
238,Labuhan,ID,2021-03-27 00:11:38,-6.8844,112.2051,79.47,85,98,4.45,overcast clouds
239,Anuradhapura,LK,2021-03-27 00:11:38,8.3565,80.4173,75.24,94,100,4.09,overcast clouds
240,Jinchang,CN,2021-03-27 00:11:39,38.4953,102.1739,47.73,16,82,6.29,broken clouds
241,Royan,FR,2021-03-27 00:11:39,45.6285,-1.0281,50.0,93,40,4.61,scattered clouds
242,Biasca,CH,2021-03-27 00:11:40,46.3597,8.9697,55.4,67,40,1.14,scattered clouds
243,Caxias Do Sul,BR,2021-03-27 00:11:40,-29.1681,-51.1794,68.0,96,98,8.01,moderate rain
244,Ostrovnoy,RU,2021-03-27 00:11:40,68.0531,39.5131,21.25,89,38,19.04,scattered clouds
245,Bambous Virieux,MU,2021-03-27 00:11:42,-20.3428,57.7575,77.0,83,20,2.3,few clouds
246,Husavik,IS,2021-03-27 00:11:42,66.0449,-17.3389,17.6,62,90,6.91,light snow
247,Tongliao,CN,2021-03-27 00:11:43,43.6125,122.2653,49.84,74,18,9.91,few clouds
248,Russell,US,2021-03-27 00:11:43,32.3502,-85.1999,68.0,94,75,1.63,broken clouds
249,Dalby,AU,2021-03-27 00:11:43,-27.1833,151.2667,69.8,68,56,3.44,broken clouds
250,Gewane,ET,2021-03-27 00:11:44,10.1664,40.6453,72.46,48,1,4.41,clear sky
251,Cidreira,BR,2021-03-27 00:11:44,-30.1811,-50.2056,70.66,89,99,2.68,moderate rain
252,Ateptsevo,RU,2021-03-27 00:11:45,55.3236,36.75,36.0,86,75,4.47,broken clouds
253,Erbaa,TR,2021-03-27 00:11:45,40.6689,36.5675,42.8,81,75,2.3,light rain
254,Georgetown,MY,2021-03-27 00:06:48,5.4112,100.3354,78.01,100,40,2.15,mist
255,Hofn,IS,2021-03-27 00:11:46,64.2539,-15.2082,18.45,65,94,19.08,overcast clouds
256,Shingu,JP,2021-03-27 00:11:46,33.7333,135.9833,55.4,41,40,2.3,scattered clouds
257,Sacramento,US,2021-03-27 00:08:00,38.4666,-121.3177,73.99,18,1,11.5,clear sky
258,Lorengau,PG,2021-03-27 00:11:46,-2.0226,147.2712,83.28,75,100,4.47,light rain
259,Pokhara,NP,2021-03-27 00:11:47,28.2333,83.9833,63.84,16,0,6.85,clear sky
260,Vila Franca Do Campo,PT,2021-03-27 00:11:47,37.7167,-25.4333,55.4,76,20,6.91,few clouds
261,Bairiki,KI,2021-03-27 00:11:48,1.3292,172.9752,86.0,70,40,12.66,scattered clouds
262,Golden,US,2021-03-27 00:11:48,39.7555,-105.2211,43.0,87,75,13.8,light rain
263,Bilibino,RU,2021-03-27 00:11:48,68.0546,166.4372,-10.25,90,95,1.72,overcast clouds
264,Peddapalli,IN,2021-03-27 00:11:49,18.6167,79.3667,77.72,29,1,4.79,clear sky
265,Byron Bay,AU,2021-03-27 00:07:19,-28.65,153.6167,75.0,78,68,5.75,broken clouds
266,Saldanha,ZA,2021-03-27 00:11:50,-33.0117,17.9442,62.6,88,18,3.44,moderate rain
267,Sobolevo,RU,2021-03-27 00:11:50,54.4299,31.8996,32.9,98,100,3.06,overcast clouds
268,Stornoway,GB,2021-03-27 00:11:50,58.2093,-6.3865,37.4,81,75,4.61,light rain
269,Sungaipenuh,ID,2021-03-27 00:07:16,-2.0833,101.3833,65.19,98,100,1.95,light rain
270,Puga,MX,2021-03-27 00:11:51,21.5833,-104.8167,80.6,44,20,6.91,few clouds
271,Caravelas,BR,2021-03-27 00:11:52,-17.7125,-39.2481,75.92,78,0,5.44,clear sky
272,Macaubas,BR,2021-03-27 00:11:52,-13.0194,-42.6986,71.33,31,43,4.52,scattered clouds
273,Chicama,PE,2021-03-27 00:11:53,-7.8447,-79.1469,69.8,88,40,3.44,fog
274,Port Hueneme,US,2021-03-27 00:11:53,34.1478,-119.1951,62.6,63,1,16.11,clear sky
275,Prado,BR,2021-03-27 00:11:54,-17.3411,-39.2208,76.57,78,0,6.96,clear sky
276,Bosanska Dubica,BA,2021-03-27 00:11:54,45.1767,16.8094,42.01,35,1,3.09,clear sky
277,Jaguarari,BR,2021-03-27 00:11:54,-10.2639,-40.1958,76.42,45,100,7.61,overcast clouds
278,Tasiilaq,GL,2021-03-27 00:11:55,65.6145,-37.6368,6.8,47,75,9.22,broken clouds
279,Aleksandrov Gay,RU,2021-03-27 00:11:55,50.147,48.5704,28.9,92,100,12.8,overcast clouds
280,Lata,PT,2021-03-27 00:11:56,40.1629,-8.3327,53.01,91,3,8.01,clear sky
281,Zharkovskiy,RU,2021-03-27 00:11:56,55.849,32.2697,33.84,98,97,1.99,overcast clouds
282,Sibolga,ID,2021-03-27 00:07:16,1.7427,98.7792,77.05,88,100,3.94,overcast clouds
283,Dunedin,NZ,2021-03-27 00:11:57,-45.8742,170.5036,66.0,54,71,1.01,light rain
284,Shubarshi,KZ,2021-03-27 00:11:57,48.5872,57.1869,31.1,97,100,12.37,light snow
285,Kaitangata,NZ,2021-03-27 00:11:58,-46.2817,169.8464,63.0,74,91,1.99,overcast clouds
286,Marawi,PH,2021-03-27 00:11:58,7.9986,124.2928,79.0,76,97,4.0,overcast clouds
287,Talaya,RU,2021-03-27 00:11:58,61.3833,152.75,-8.59,86,58,0.96,broken clouds
288,Severnyy,RU,2021-03-27 00:11:59,50.677,36.5532,35.6,80,0,6.71,clear sky
289,Arecibo,PR,2021-03-27 00:11:59,18.4724,-66.7157,73.99,84,4,1.01,clear sky
290,Victor Harbor,AU,2021-03-27 00:12:00,-35.5667,138.6167,69.01,57,9,11.23,clear sky
291,Henties Bay,NA,2021-03-27 00:12:00,-22.116,14.2845,61.0,95,21,4.0,few clouds
292,Saskylakh,RU,2021-03-27 00:12:00,71.9167,114.0833,3.04,96,99,3.0,overcast clouds
293,Gushikawa,JP,2021-03-27 00:12:01,26.3544,127.8686,73.4,73,75,13.8,broken clouds
294,Bandarbeyla,SO,2021-03-27 00:12:02,9.4942,50.8122,77.36,74,92,9.84,overcast clouds
295,Monze,ZM,2021-03-27 00:12:02,-16.2833,27.4833,64.18,85,43,0.85,scattered clouds
296,Norman Wells,CA,2021-03-27 00:12:02,65.282,-126.8329,32.0,40,75,2.3,broken clouds
297,Leo,BF,2021-03-27 00:12:03,11.1,-2.1,84.11,11,39,7.34,scattered clouds
298,Port Lincoln,AU,2021-03-27 00:12:03,-34.7333,135.8667,65.08,59,33,9.66,scattered clouds
299,Rio Gallegos,AR,2021-03-27 00:07:45,-51.6226,-69.2181,46.4,81,0,3.44,clear sky
300,Reftinskiy,RU,2021-03-27 00:07:06,57.0901,61.6769,23.0,93,100,2.24,overcast clouds
301,Oksfjord,NO,2021-03-27 00:12:04,70.2396,22.3479,37.4,60,100,4.61,overcast clouds
302,Santona,ES,2021-03-27 00:12:05,43.4439,-3.4576,52.0,93,90,6.91,overcast clouds
303,Northam,GB,2021-03-27 00:12:05,51.0333,-4.2167,46.0,79,92,15.99,overcast clouds
304,Portland,US,2021-03-27 00:08:23,45.5234,-122.6762,57.0,47,40,1.68,scattered clouds
305,Katunino,RU,2021-03-27 00:12:05,64.3862,40.6298,19.4,93,20,1.88,few clouds
306,Biloela,AU,2021-03-27 00:12:06,-24.4167,150.5,81.1,36,0,0.83,clear sky
307,Azoyu,MX,2021-03-27 00:12:07,16.7167,-98.7333,80.8,54,18,6.38,few clouds
308,Dudinka,RU,2021-03-27 00:12:07,69.4058,86.1778,20.57,95,100,11.74,light snow
309,Mashhad,IR,2021-03-27 00:07:43,36.297,59.6062,55.4,88,75,6.91,broken clouds
310,La Ronge,CA,2021-03-27 00:12:08,55.1001,-105.2842,21.2,63,100,5.75,overcast clouds
311,Cofradia,HN,2021-03-27 00:08:03,15.4,-88.15,87.8,58,40,13.8,scattered clouds
312,Kathu,TH,2021-03-27 00:12:09,7.9178,98.3332,87.01,89,40,2.3,scattered clouds
313,Baykit,RU,2021-03-27 00:12:09,61.67,96.37,11.53,98,100,3.06,overcast clouds
314,Chokwe,MZ,2021-03-27 00:12:09,-24.5333,32.9833,71.31,82,48,2.59,scattered clouds
315,Bentiu,SS,2021-03-27 00:12:10,9.2333,29.8333,86.76,43,99,7.43,overcast clouds
316,Mehamn,NO,2021-03-27 00:12:10,71.0357,27.8492,31.05,86,64,19.26,broken clouds
317,Padang,ID,2021-03-27 00:12:11,-0.9492,100.3543,75.2,94,75,2.3,broken clouds
318,Faro,PT,2021-03-27 00:12:11,37.0194,-7.9322,62.6,55,0,8.43,clear sky
319,Hay River,CA,2021-03-27 00:12:11,60.8156,-115.7999,21.2,45,15,5.75,few clouds
320,Honningsvag,NO,2021-03-27 00:12:12,70.9821,25.9704,35.92,79,76,28.81,broken clouds
321,Tiksi,RU,2021-03-27 00:12:12,71.6872,128.8694,10.8,91,100,6.38,overcast clouds
322,Buturlino,RU,2021-03-27 00:12:12,55.5667,44.8974,33.08,98,100,7.0,overcast clouds
323,Diu,IN,2021-03-27 00:12:13,20.7141,70.9822,79.41,33,0,5.86,clear sky
324,Los Llanos De Aridane,ES,2021-03-27 00:12:13,28.6585,-17.9182,68.0,52,90,14.83,overcast clouds
325,Faya,SA,2021-03-27 00:12:14,18.3851,42.4509,60.8,58,0,4.61,clear sky
326,Hokitika,NZ,2021-03-27 00:12:14,-42.7167,170.9667,64.22,68,70,3.94,broken clouds
327,Tabou,CI,2021-03-27 00:12:15,4.423,-7.3528,78.21,91,1,6.42,clear sky
328,Namatanai,PG,2021-03-27 00:12:15,-3.6667,152.4333,83.44,73,100,9.17,moderate rain
329,Klaksvik,FO,2021-03-27 00:12:16,62.2266,-6.589,39.2,48,40,13.8,scattered clouds
330,Ures,MX,2021-03-27 00:12:16,29.4333,-110.4,73.99,29,0,11.01,clear sky
331,Shiraz,IR,2021-03-27 00:12:17,29.6036,52.5388,64.4,29,0,6.91,clear sky
332,Khomutovo,RU,2021-03-27 00:12:17,52.4658,104.4025,30.2,74,75,26.84,broken clouds
333,Zeya,RU,2021-03-27 00:12:18,53.75,127.2667,31.14,70,99,3.53,overcast clouds
334,Huilong,CN,2021-03-27 00:12:18,31.8111,121.655,63.0,95,99,4.0,light rain
335,Bismarck,US,2021-03-27 00:08:01,46.8083,-100.7837,42.8,49,90,6.91,overcast clouds
336,Sandnessjoen,NO,2021-03-27 00:12:19,66.0217,12.6316,48.2,53,100,24.16,overcast clouds
337,Ullapool,GB,2021-03-27 00:12:19,57.8987,-5.1604,34.0,42,66,13.96,broken clouds
338,Evensk,RU,2021-03-27 00:12:20,61.95,159.2333,0.86,88,69,2.98,broken clouds
339,Whitehorse,CA,2021-03-27 00:12:04,60.7161,-135.0538,37.99,44,75,8.05,light snow
340,Mount Isa,AU,2021-03-27 00:12:20,-20.7333,139.5,86.0,23,0,13.8,clear sky
341,Salalah,OM,2021-03-27 00:11:27,17.0151,54.0924,73.4,27,0,5.75,clear sky
342,Laramie,US,2021-03-27 00:12:21,41.3114,-105.5911,32.0,93,75,3.44,snow
343,Cervo,ES,2021-03-27 00:12:21,43.6702,-7.4101,49.24,57,72,2.59,broken clouds
344,Ucluelet,CA,2021-03-27 00:10:13,48.9329,-125.5528,52.0,66,1,14.97,clear sky
345,Acarau,BR,2021-03-27 00:12:22,-2.8856,-40.12,76.17,89,95,10.56,overcast clouds
346,Adre,TD,2021-03-27 00:12:22,13.4667,22.2,76.35,14,93,21.65,overcast clouds
347,Kimbe,PG,2021-03-27 00:12:23,-5.5502,150.1429,88.34,59,95,2.17,overcast clouds
348,Wanaka,NZ,2021-03-27 00:12:23,-44.7,169.15,64.15,55,100,7.58,light rain
349,Dingle,PH,2021-03-27 00:12:24,10.9995,122.6711,81.03,77,79,9.6,broken clouds
350,Excelsior Springs,US,2021-03-27 00:12:24,39.3392,-94.2261,62.01,55,1,11.5,clear sky
351,Mount Gambier,AU,2021-03-27 00:12:25,-37.8333,140.7667,59.0,88,40,6.91,scattered clouds
352,Buala,SB,2021-03-27 00:12:25,-8.145,159.5921,85.35,72,32,11.41,light rain
353,Aldan,RU,2021-03-27 00:12:26,58.6031,125.3894,26.64,92,100,3.87,overcast clouds
354,Yamada,JP,2021-03-27 00:12:26,39.4667,141.95,45.23,62,67,2.19,broken clouds
355,Cayenne,GF,2021-03-27 00:12:26,4.9333,-52.3333,80.01,89,40,8.05,scattered clouds
356,Egvekinot,RU,2021-03-27 00:12:27,66.3167,-179.1667,-5.57,80,99,7.4,overcast clouds
357,Katsuura,JP,2021-03-27 00:12:27,35.1333,140.3,54.0,47,20,8.05,few clouds
358,San Pedro,PH,2021-03-27 00:12:28,14.35,121.0167,86.0,65,20,2.3,few clouds
359,Sinnamary,GF,2021-03-27 00:12:28,5.3833,-52.95,77.86,83,30,10.6,scattered clouds
360,Cocorit,MX,2021-03-27 00:12:29,27.5833,-109.9667,73.4,31,1,11.5,clear sky
361,Mayo,US,2021-03-27 00:12:29,38.8876,-76.5119,68.0,42,1,14.97,clear sky
362,Kisangani,CD,2021-03-27 00:12:30,0.5167,25.2,67.51,99,98,1.54,overcast clouds
363,Porirua,NZ,2021-03-27 00:12:30,-41.1333,174.85,69.01,71,78,8.01,broken clouds
364,Izumo,JP,2021-03-27 00:12:31,35.3667,132.7667,44.6,57,0,5.75,clear sky
365,Yar-Sale,RU,2021-03-27 00:12:31,66.8333,70.8333,1.9,92,44,12.91,scattered clouds
366,Ponta Pora,BR,2021-03-27 00:12:32,-22.5361,-55.7256,74.3,50,16,5.28,few clouds
367,Kaeo,NZ,2021-03-27 00:12:32,-35.1,173.7833,69.01,81,96,8.99,light rain
368,La Primavera,CO,2021-03-27 00:12:33,5.4906,-70.4092,77.5,81,98,4.59,heavy intensity rain
369,Zilupe,LV,2021-03-27 00:12:33,56.3862,28.1217,31.95,94,6,1.81,clear sky
370,Geraldton,AU,2021-03-27 00:12:33,-28.7667,114.6,60.8,82,2,9.22,clear sky
371,Hailun,CN,2021-03-27 00:12:34,47.45,126.9333,41.58,86,62,6.08,broken clouds
372,Isangel,VU,2021-03-27 00:12:34,-19.55,169.2667,82.4,83,75,6.64,broken clouds
373,Nsanje,MW,2021-03-27 00:12:35,-16.92,35.262,71.56,87,1,1.01,clear sky
374,Kapit,MY,2021-03-27 00:12:35,2.0167,112.9333,73.31,99,100,1.34,light rain
375,Ler,SS,2021-03-27 00:12:35,8.3018,30.1418,85.53,44,99,7.45,overcast clouds
376,Omboue,GA,2021-03-27 00:12:36,-1.5746,9.2618,77.61,83,92,4.83,overcast clouds
377,Katangli,RU,2021-03-27 00:12:36,51.7102,143.2326,20.07,80,76,4.76,broken clouds
378,Bowen,AU,2021-03-27 00:12:37,-20.0167,148.2333,84.2,74,40,10.36,scattered clouds
379,Poso,ID,2021-03-27 00:12:37,-1.3959,120.7524,75.42,93,100,4.18,overcast clouds
380,Bubaque,GW,2021-03-27 00:12:38,11.2833,-15.8333,76.37,75,6,16.91,clear sky
381,Thunder Bay,CA,2021-03-27 00:12:38,48.4001,-89.3168,30.2,69,40,10.36,scattered clouds
382,Mayna,RU,2021-03-27 00:12:39,54.1135,47.6231,31.57,98,100,8.14,overcast clouds
383,Sokolniki,PL,2021-03-27 00:12:39,50.638,21.8065,39.0,79,7,1.99,clear sky
384,Maxixe,MZ,2021-03-27 00:12:39,-23.8597,35.3472,73.78,89,33,7.81,light rain
385,Bintulu,MY,2021-03-27 00:12:40,3.1667,113.0333,77.0,94,40,4.61,scattered clouds
386,Sorland,NO,2021-03-27 00:12:40,67.667,12.6934,40.68,78,100,21.3,overcast clouds
387,Solnechnyy,RU,2021-03-27 00:12:41,50.7214,136.6319,31.64,76,69,4.0,broken clouds
388,Bereda,ES,2021-03-27 00:12:41,43.2686,-7.5406,37.99,100,52,3.15,broken clouds
389,Tessalit,ML,2021-03-27 00:08:52,20.1986,1.0114,72.37,12,0,20.6,clear sky
390,Dillon,US,2021-03-27 00:12:42,34.4166,-79.3712,73.0,94,1,8.05,clear sky
391,Aranos,NA,2021-03-27 00:12:42,-24.1333,19.1167,68.41,39,3,16.46,clear sky
392,Cairns,AU,2021-03-27 00:12:43,-16.9167,145.7667,87.8,66,57,10.36,broken clouds
393,Riviere-Au-Renard,CA,2021-03-27 00:12:43,48.9957,-64.3971,30.2,93,90,9.22,snow
394,Monte Alegre,BR,2021-03-27 00:12:43,-2.0078,-54.0692,74.91,89,71,4.34,broken clouds
395,Cabras,IT,2021-03-27 00:12:44,39.93,8.5314,50.02,76,98,7.07,overcast clouds
396,Mao,ES,2021-03-27 00:12:44,39.8885,4.2658,55.4,94,0,5.75,clear sky
397,Waipawa,NZ,2021-03-27 00:12:45,-41.4122,175.5153,69.8,60,40,18.41,scattered clouds
398,Riyadh,SA,2021-03-27 00:10:06,24.6877,46.7219,82.4,16,0,11.5,clear sky
399,Fortuna,US,2021-03-27 00:12:45,40.5982,-124.1573,57.99,71,20,17.27,few clouds
400,Black Forest,US,2021-03-27 00:12:46,39.0131,-104.7008,39.99,93,75,11.5,broken clouds
401,Touho,NC,2021-03-27 00:12:46,-20.7833,165.2333,80.58,69,23,10.98,few clouds
402,General Roca,AR,2021-03-27 00:08:28,-39.0333,-67.5833,59.0,63,0,8.41,clear sky
403,Atar,MR,2021-03-27 00:12:47,20.5169,-13.0499,80.71,12,6,7.87,clear sky
404,Male,MV,2021-03-27 00:12:47,4.1748,73.5089,82.4,83,75,12.66,moderate rain
405,Vilyuysk,RU,2021-03-27 00:12:48,63.7553,121.6247,14.43,94,43,6.98,scattered clouds
406,Havre-Saint-Pierre,CA,2021-03-27 00:12:48,50.2334,-63.5986,28.4,59,90,24.16,overcast clouds
407,Boden,SE,2021-03-27 00:12:49,65.8252,21.6886,32.0,93,90,14.97,fog
408,Pacifica,US,2021-03-27 00:07:49,37.6138,-122.4869,61.0,47,1,12.66,clear sky
409,Susanville,US,2021-03-27 00:12:49,40.4163,-120.653,55.4,22,1,9.22,clear sky
410,Selkirk,CA,2021-03-27 00:10:14,50.1436,-96.8845,39.2,60,94,2.3,overcast clouds
411,Great Yarmouth,GB,2021-03-27 00:12:50,52.6083,1.7305,41.0,75,40,12.66,scattered clouds
412,Coihaique,CL,2021-03-27 00:12:50,-45.5752,-72.0662,55.4,71,75,5.66,broken clouds
413,Port Hedland,AU,2021-03-27 00:12:51,-20.3167,118.5667,82.4,78,0,5.75,clear sky
414,Emba,KZ,2021-03-27 00:12:51,48.8264,58.1442,30.78,97,100,14.05,light snow
415,Krasnoselkup,RU,2021-03-27 00:12:52,65.7,82.4667,9.7,95,94,12.01,overcast clouds
416,Santa Cruz,BO,2021-03-27 00:10:11,-17.8,-63.1667,78.8,89,75,9.22,broken clouds
417,Kirakira,SB,2021-03-27 00:12:52,-10.4544,161.9205,85.78,71,66,9.01,broken clouds
418,Sao Joao Da Barra,BR,2021-03-27 00:12:53,-21.6403,-41.0511,76.77,85,18,9.08,few clouds
419,Balotra,IN,2021-03-27 00:12:53,25.8333,72.2333,77.18,21,0,6.93,clear sky
420,Humaita,BR,2021-03-27 00:12:53,-7.5061,-63.0208,77.14,87,68,0.27,broken clouds
421,Aripuana,BR,2021-03-27 00:12:54,-9.1667,-60.6333,72.34,97,70,2.77,broken clouds
422,Ho Chi Minh City,VN,2021-03-27 00:08:16,10.75,106.6667,80.6,83,20,10.36,few clouds
423,Vardo,NO,2021-03-27 00:12:54,70.3705,31.1107,33.8,69,0,14.97,clear sky
424,Abeche,TD,2021-03-27 00:12:55,13.8292,20.8324,79.05,13,84,16.35,broken clouds
425,Kahului,US,2021-03-27 00:09:03,20.8947,-156.47,84.2,61,40,18.41,scattered clouds
426,Bageshwar,IN,2021-03-27 00:12:56,29.85,79.7667,54.77,29,0,3.51,clear sky
427,Huron,US,2021-03-27 00:12:56,41.1501,-82.5499,52.0,82,96,6.69,overcast clouds
428,Camargo,MX,2021-03-27 00:12:57,27.6667,-105.1667,81.18,4,35,24.76,scattered clouds
429,Paamiut,GL,2021-03-27 00:12:57,61.994,-49.6678,-6.99,81,49,18.37,scattered clouds
430,Talnakh,RU,2021-03-27 00:12:58,69.4865,88.3972,15.67,94,100,9.48,light snow
431,Cutro,IT,2021-03-27 00:12:59,39.0353,16.9819,53.6,82,75,5.75,broken clouds
432,Pangnirtung,CA,2021-03-27 00:12:59,66.1451,-65.7125,-23.3,85,22,5.82,few clouds
433,Zlobin,HR,2021-03-27 00:12:59,45.2924,14.6541,48.2,81,0,4.61,clear sky
434,Sukumo,JP,2021-03-27 00:13:00,32.9333,132.7333,63.52,63,4,7.45,clear sky
435,Orocue,CO,2021-03-27 00:13:00,4.7912,-71.3354,77.22,82,93,3.44,moderate rain
436,Mount Pleasant,US,2021-03-27 00:09:22,32.7941,-79.8626,73.4,83,75,8.05,moderate rain
437,Vestmannaeyjar,IS,2021-03-27 00:13:01,63.4427,-20.2734,21.15,64,12,12.21,few clouds
438,Saint-Augustin,CA,2021-03-27 00:13:02,51.226,-58.6502,19.42,79,100,17.92,overcast clouds
439,Luderitz,NA,2021-03-27 00:13:02,-26.6481,15.1594,62.26,79,0,8.21,clear sky
440,Plyussa,RU,2021-03-27 00:13:03,58.4308,29.3654,29.55,95,12,2.66,few clouds
441,Sultanpur,IN,2021-03-27 00:13:03,26.2667,82.0667,69.33,18,0,4.29,clear sky
442,Batticaloa,LK,2021-03-27 00:13:04,7.7102,81.6924,79.41,84,100,2.19,moderate rain
443,Papetoai,PF,2021-03-27 00:13:04,-17.4961,-149.8729,82.4,74,40,9.22,light rain
444,Batagay,RU,2021-03-27 00:12:16,67.6333,134.6333,4.59,90,100,5.03,overcast clouds
445,Huarmey,PE,2021-03-27 00:13:05,-10.0681,-78.1522,71.47,79,36,8.14,scattered clouds
446,Vadso,NO,2021-03-27 00:13:05,70.0744,29.7487,33.8,69,0,14.97,clear sky
447,Gizo,SB,2021-03-27 00:13:06,-8.103,156.8419,85.06,68,49,6.24,scattered clouds
448,Ojinaga,MX,2021-03-27 00:13:06,29.5667,-104.4167,86.0,3,1,11.5,clear sky
449,Teseney,ER,2021-03-27 00:13:07,15.11,36.6575,73.49,62,24,11.05,few clouds
450,Zholymbet,KZ,2021-03-27 00:13:07,51.7433,71.7122,27.5,97,100,3.24,snow
451,Abu Dhabi,AE,2021-03-27 00:13:08,24.4667,54.3667,80.6,31,0,4.61,clear sky
452,Kalabo,ZM,2021-03-27 00:13:08,-14.97,22.6814,68.22,87,98,4.59,moderate rain
453,Saint Anthony,US,2021-03-27 00:11:54,45.0205,-93.218,46.99,49,1,6.91,clear sky
454,Kpalime,TG,2021-03-27 00:13:09,6.9,0.6333,75.9,86,37,2.48,scattered clouds
455,Nizwa,OM,2021-03-27 00:13:09,22.9333,57.5333,74.53,35,33,2.77,scattered clouds
456,Wajima,JP,2021-03-27 00:13:09,37.4,136.9,44.6,93,0,3.44,clear sky
457,Krasnoye,UA,2021-03-27 00:13:10,49.9145,24.6134,28.4,93,97,6.71,overcast clouds
458,Provideniya,RU,2021-03-27 00:13:10,64.3833,-173.3,7.0,87,100,12.46,overcast clouds
459,Benguela,AO,2021-03-27 00:13:11,-12.5763,13.4055,75.99,78,95,2.59,overcast clouds
460,Prince Rupert,CA,2021-03-27 00:09:22,54.3161,-130.3201,42.8,93,90,10.36,light rain
461,Santa Marta,CO,2021-03-27 00:13:11,11.2408,-74.199,84.2,58,6,18.41,clear sky
462,Nassau,US,2021-03-27 00:08:30,40.7507,-73.5829,66.2,39,1,25.32,clear sky
463,Chernyshevskiy,RU,2021-03-27 00:13:12,63.0128,112.4714,5.07,99,94,4.07,overcast clouds
464,Doha,QA,2021-03-27 00:11:58,25.2867,51.5333,78.01,69,0,2.3,clear sky
465,Parry Sound,CA,2021-03-27 00:13:13,45.3501,-80.033,32.0,86,92,5.03,overcast clouds
466,Leningradskiy,RU,2021-03-27 00:13:13,69.3833,178.4167,-12.24,91,48,4.79,scattered clouds
467,Kieta,PG,2021-03-27 00:13:14,-6.2167,155.6333,83.17,78,99,7.36,moderate rain
468,Rioblanco,CO,2021-03-27 00:13:14,3.5308,-75.6806,63.52,92,100,3.62,overcast clouds
469,Srednekolymsk,RU,2021-03-27 00:13:14,67.45,153.6833,-1.37,80,41,4.59,scattered clouds
470,Darovskoy,RU,2021-03-27 00:13:15,58.77,47.9564,30.13,91,100,4.09,overcast clouds
471,Cockburn Town,TC,2021-03-27 00:13:15,21.4612,-71.1419,77.61,75,1,21.43,clear sky
472,Katima Mulilo,NA,2021-03-27 00:13:16,-17.5,24.2667,69.49,84,55,3.33,broken clouds
473,Quibdo,CO,2021-03-27 00:13:16,5.6947,-76.6611,73.92,98,100,2.8,light rain
474,Porto Velho,BR,2021-03-27 00:13:16,-8.7619,-63.9039,78.8,89,20,2.71,light rain
475,Hamilton,US,2021-03-27 00:11:31,39.1834,-84.5333,55.99,67,90,5.75,overcast clouds
476,Nusaybin,TR,2021-03-27 00:13:17,37.0778,41.2178,41.95,87,91,5.23,overcast clouds
477,Raudeberg,NO,2021-03-27 00:13:18,61.9875,5.1352,39.99,94,100,21.74,overcast clouds
478,Mabaruma,GY,2021-03-27 00:13:19,8.2,-59.7833,71.92,98,76,3.31,broken clouds
479,Cabo San Lucas,MX,2021-03-27 00:10:35,22.8909,-109.9124,77.0,52,40,11.5,scattered clouds
480,Ponferrada,ES,2021-03-27 00:13:19,42.5466,-6.5962,37.99,90,54,1.01,broken clouds
481,Vershino-Shakhtaminskiy,RU,2021-03-27 00:13:20,51.3012,117.8868,27.27,86,100,2.01,overcast clouds
482,Porto Novo,BJ,2021-03-27 00:13:20,6.4965,2.6036,84.2,79,40,13.8,scattered clouds
483,Sangar,RU,2021-03-27 00:13:21,63.9242,127.4739,11.52,92,100,13.47,light snow
484,Mayor Pablo Lagerenza,PY,2021-03-27 00:13:21,-19.9309,-60.7718,81.05,59,45,5.59,scattered clouds
485,Neiafu,TO,2021-03-27 00:13:22,-18.65,-173.9833,84.2,74,40,12.66,light rain
486,Bukama,CD,2021-03-27 00:13:22,-9.2,25.85,66.18,98,83,1.12,light rain
487,Champerico,GT,2021-03-27 00:13:22,14.3,-91.9167,87.8,66,40,6.91,scattered clouds
488,Traverse City,US,2021-03-27 00:13:23,44.7631,-85.6206,33.8,75,90,8.05,overcast clouds
489,Chimoio,MZ,2021-03-27 00:13:23,-19.1164,33.4833,69.8,100,75,1.63,light rain
490,Gazojak,TM,2021-03-27 00:13:23,41.1875,61.4036,53.62,58,52,8.7,broken clouds
491,Sorada,IN,2021-03-27 00:13:24,19.75,84.4333,75.38,53,20,1.1,few clouds
492,Rabo De Peixe,PT,2021-03-27 00:13:24,37.8,-25.5833,55.4,76,20,6.91,few clouds
493,Tromso,NO,2021-03-27 00:13:25,69.6496,18.957,35.01,69,0,12.12,clear sky
494,Iguatu,BR,2021-03-27 00:13:25,-6.3594,-39.2986,76.39,76,97,4.74,overcast clouds
495,Ubatuba,BR,2021-03-27 00:13:26,-23.4339,-45.0711,78.8,78,20,6.91,few clouds
496,Gondang,ID,2021-03-27 00:13:26,-7.0109,111.3189,77.45,90,58,2.86,broken clouds
497,Yinchuan,CN,2021-03-27 00:13:27,38.4681,106.2731,49.3,18,4,8.32,clear sky
498,Lethem,GY,2021-03-27 00:13:27,3.3803,-59.7968,79.83,72,97,11.56,overcast clouds
499,Flagstaff,US,2021-03-27 00:10:55,35.1981,-111.6513,34.0,86,75,3.44,snow
500,Sabana Grande De Boya,DO,2021-03-27 00:13:28,18.945,-69.7933,78.8,83,40,7.16,scattered clouds
501,Krasnyye Baki,RU,2021-03-27 00:13:28,57.131,45.1599,31.3,87,100,5.55,overcast clouds
502,Half Moon Bay,US,2021-03-27 00:13:29,37.4636,-122.4286,71.6,47,1,12.66,clear sky
503,Dasoguz,TM,2021-03-27 00:13:29,41.8363,59.9666,46.4,76,0,6.91,clear sky
504,Iseyin,NG,2021-03-27 00:13:30,7.9667,3.6,79.56,65,98,7.05,overcast clouds
505,Whitefish,US,2021-03-27 00:13:30,48.4111,-114.3376,50.0,37,90,10.36,overcast clouds
506,Takoradi,GH,2021-03-27 00:13:31,4.8845,-1.7554,79.68,86,30,6.85,scattered clouds
507,Ust-Maya,RU,2021-03-27 00:13:31,60.4167,134.5333,16.25,85,100,6.33,overcast clouds
508,Bom Jesus,BR,2021-03-27 00:13:32,-9.0744,-44.3586,77.02,66,98,2.13,overcast clouds
509,Arlit,NE,2021-03-27 00:13:32,18.7369,7.3853,65.75,13,0,9.71,clear sky
510,Mbandaka,CD,2021-03-27 00:13:33,0.0487,18.2603,69.51,95,86,2.89,overcast clouds
511,Guaruja,BR,2021-03-27 00:13:33,-23.9931,-46.2564,82.0,26,0,7.54,clear sky
512,Kulu,TR,2021-03-27 00:10:19,39.0951,33.0799,29.26,81,98,12.03,overcast clouds
513,Xining,CN,2021-03-27 00:13:34,36.6167,101.7667,38.43,56,44,1.16,scattered clouds
514,Derzhavinsk,KZ,2021-03-27 00:13:35,51.1,66.3167,32.41,97,100,15.3,overcast clouds
515,Scarborough,GB,2021-03-27 00:13:35,54.2797,-0.4044,39.0,83,44,5.01,scattered clouds
516,Tammisaari,FI,2021-03-27 00:13:35,59.9736,23.4339,33.01,96,80,7.45,broken clouds
517,Fairbanks,US,2021-03-27 00:13:36,64.8378,-147.7164,28.0,74,90,6.91,overcast clouds
518,Lavrentiya,RU,2021-03-27 00:12:18,65.5833,-171.0,3.74,78,100,7.2,overcast clouds
519,Buhe,CN,2021-03-27 00:13:36,30.2876,112.2298,60.01,87,99,3.31,overcast clouds
520,Ruteng,ID,2021-03-27 00:13:37,-8.6136,120.4721,68.76,76,96,2.15,overcast clouds
521,Clacton-On-Sea,GB,2021-03-27 00:13:38,51.7897,1.156,42.01,81,69,7.0,broken clouds
522,Taksimo,RU,2021-03-27 00:13:38,56.3444,114.8794,23.54,91,100,2.15,overcast clouds
523,Graciano Sanchez,MX,2021-03-27 00:13:38,23.9167,-99.2833,91.4,18,90,9.22,overcast clouds
524,San Luis,AR,2021-03-27 00:10:20,-33.295,-66.3356,50.59,67,52,8.81,broken clouds
525,Vung Tau,VN,2021-03-27 00:13:39,10.346,107.0843,80.17,80,100,18.52,overcast clouds
526,Kota Kinabalu,MY,2021-03-27 00:13:40,5.9749,116.0724,78.8,89,20,4.61,few clouds
527,Belaya Gora,RU,2021-03-27 00:12:18,68.5333,146.4167,-8.01,91,83,4.12,broken clouds
528,Wichita Falls,US,2021-03-27 00:13:40,33.9137,-98.4934,77.0,33,1,17.27,clear sky
529,Sartell,US,2021-03-27 00:13:41,45.6216,-94.2069,46.4,53,75,8.05,broken clouds
530,Gotsu,JP,2021-03-27 00:13:41,35.0,132.2167,51.8,58,0,5.75,clear sky
531,La Palma,US,2021-03-27 00:13:42,33.8464,-118.0467,64.99,51,1,10.36,clear sky
532,Yarada,IN,2021-03-27 00:13:43,17.65,83.2667,79.11,67,31,3.69,scattered clouds
533,Ornskoldsvik,SE,2021-03-27 00:13:43,63.2909,18.7153,35.6,100,97,6.91,overcast clouds
534,Guerrero Negro,MX,2021-03-27 00:13:43,27.9769,-114.0611,61.86,53,0,17.31,clear sky
535,The Valley,AI,2021-03-27 00:13:44,18.217,-63.0578,78.01,73,20,12.66,few clouds
536,Kon Tum,VN,2021-03-27 00:13:44,14.35,108.0,70.5,74,99,1.92,overcast clouds
537,Kafar Manda,IL,2021-03-27 00:13:45,32.8105,35.2599,53.01,61,89,1.01,overcast clouds
538,Havoysund,NO,2021-03-27 00:13:45,70.9963,24.6622,37.4,65,20,12.66,few clouds
539,Kijang,KR,2021-03-27 00:13:46,35.2442,129.2139,53.6,66,0,5.75,clear sky
540,Pisco,PE,2021-03-27 00:09:15,-13.7,-76.2167,70.0,73,0,20.71,clear sky
541,Coruripe,BR,2021-03-27 00:13:46,-10.1256,-36.1756,77.52,83,98,9.31,overcast clouds
542,Yokadouma,CM,2021-03-27 00:13:47,3.5167,15.05,68.99,91,55,1.43,broken clouds
543,Qasigiannguit,GL,2021-03-27 00:13:47,68.8193,-51.1922,-13.0,48,10,6.46,clear sky
544,Las Cruces,US,2021-03-27 00:13:48,32.3123,-106.7783,68.0,18,40,12.66,scattered clouds
545,Sigli,ID,2021-03-27 00:13:48,5.3848,95.9609,80.06,78,95,7.81,overcast clouds
546,Nemuro,JP,2021-03-27 00:13:48,43.3236,145.575,35.6,44,20,6.91,few clouds
547,Puerto Ayacucho,VE,2021-03-27 00:13:49,5.6639,-67.6236,74.1,93,99,7.43,moderate rain
548,Iqaluit,CA,2021-03-27 00:13:50,63.7506,-68.5145,-16.01,63,20,8.05,few clouds
549,Nantucket,US,2021-03-27 00:09:18,41.2835,-70.0995,48.99,100,90,23.02,mist
550,Birao,CF,2021-03-27 00:13:50,10.2849,22.7882,79.88,51,83,3.87,broken clouds
551,Flinders,AU,2021-03-27 00:13:51,-34.5833,150.8552,75.99,56,6,5.99,clear sky
552,Kargasok,RU,2021-03-27 00:13:51,59.0556,80.8572,31.95,94,100,10.71,overcast clouds
553,Dunbar,US,2021-03-27 00:13:51,38.3606,-81.7374,64.4,45,20,4.61,few clouds
554,Suntar,RU,2021-03-27 00:13:52,62.1444,117.6319,13.17,92,65,4.56,broken clouds
555,Ahuimanu,US,2021-03-27 00:13:53,21.4447,-157.8378,82.4,78,40,10.36,scattered clouds
556,Malanje,AO,2021-03-27 00:13:53,-9.5402,16.341,63.01,96,100,2.1,overcast clouds
557,Salzhemmendorf,DE,2021-03-27 00:13:53,52.067,9.5872,51.01,61,100,3.0,overcast clouds
558,Lishu,CN,2021-03-27 00:13:54,43.3047,124.3278,51.04,54,100,16.35,overcast clouds
559,Finschhafen,PG,2021-03-27 00:13:54,-6.6024,147.8681,85.46,69,96,10.38,overcast clouds
560,Dedougou,BF,2021-03-27 00:13:55,12.4667,-3.4667,83.05,14,1,6.31,clear sky
561,Anderson,US,2021-03-27 00:09:13,34.5334,-82.6499,71.01,60,1,8.05,clear sky
562,Saint-Francois,FR,2021-03-27 00:13:55,46.4154,3.9054,51.8,66,0,11.5,clear sky
563,Baiao,BR,2021-03-27 00:13:55,-2.7906,-49.6717,73.09,98,80,2.8,broken clouds
564,Laguna,US,2021-03-27 00:13:56,38.421,-121.4238,73.99,16,1,11.5,clear sky
565,Pacific Grove,US,2021-03-27 00:13:56,36.6177,-121.9166,66.0,48,1,9.22,clear sky
566,Korla,CN,2021-03-27 00:13:57,41.7597,86.1469,53.73,32,100,6.67,overcast clouds
567,Pocos De Caldas,BR,2021-03-27 00:13:57,-21.7878,-46.5614,63.39,87,21,1.3,few clouds
568,Aktyubinskiy,RU,2021-03-27 00:13:58,54.8137,52.8056,30.56,98,100,5.57,overcast clouds
569,Tapikan,PH,2021-03-27 00:13:58,6.8519,124.3225,77.13,72,81,2.91,broken clouds
570,Apollonia,GR,2021-03-27 00:13:59,36.9716,24.7231,48.2,65,0,3.44,clear sky
571,General Pico,AR,2021-03-27 00:13:59,-35.6566,-63.7568,55.29,93,100,16.28,overcast clouds
572,Marsh Harbour,BS,2021-03-27 00:14:00,26.5412,-77.0636,75.92,74,34,10.29,scattered clouds
573,Banda Aceh,ID,2021-03-27 00:14:00,5.5577,95.3222,78.89,82,100,10.42,overcast clouds
574,Sabang,ID,2021-03-27 00:14:00,5.8933,95.3214,83.84,73,99,19.13,moderate rain
575,Sakakah,SA,2021-03-27 00:14:01,29.9697,40.2064,55.4,47,0,11.5,clear sky
576,Kharar,IN,2021-03-27 00:14:01,30.7444,76.6478,64.4,72,1,1.14,clear sky
577,Kerman,IR,2021-03-27 00:14:02,30.2832,57.0788,66.2,27,0,4.61,clear sky
578,Baijiantan,CN,2021-03-27 00:14:02,45.6333,85.1833,39.87,71,99,3.09,overcast clouds
579,Pirovskoye,RU,2021-03-27 00:14:03,57.6267,92.2658,23.32,93,100,9.57,overcast clouds
580,Miri,MY,2021-03-27 00:13:22,4.4148,114.0089,77.0,88,20,2.3,few clouds
581,Juegang,CN,2021-03-27 00:14:03,32.3174,121.1855,64.0,92,100,12.48,overcast clouds
582,Gornyye Klyuchi,RU,2021-03-27 00:12:15,45.25,133.5,38.26,85,100,7.54,overcast clouds
583,Miacatlan,MX,2021-03-27 00:10:07,18.7667,-99.3667,91.4,11,75,6.91,broken clouds
584,Alofi,NU,2021-03-27 00:14:04,-19.0595,-169.9187,84.2,79,54,17.27,light rain
585,Ouegoa,NC,2021-03-27 00:14:05,-20.35,164.4333,85.06,60,14,8.99,few clouds
586,Morondava,MG,2021-03-27 00:14:05,-20.2833,44.2833,73.81,85,1,5.91,clear sky
587,Vaitape,PF,2021-03-27 00:14:05,-16.5167,-151.75,82.9,73,8,22.08,light rain
588,Itamaraca,BR,2021-03-27 00:14:06,-7.7478,-34.8256,78.8,78,40,4.61,scattered clouds
589,Sanchor,IN,2021-03-27 00:14:06,24.7553,71.7722,73.63,27,0,6.33,clear sky
590,Eureka,US,2021-03-27 00:14:07,40.8021,-124.1637,61.0,70,0,8.99,clear sky
591,Tura,IN,2021-03-27 00:14:07,25.5198,90.2201,68.56,15,0,3.24,clear sky
592,Sterling,US,2021-03-27 00:12:03,39.0062,-77.4286,66.2,42,20,14.97,few clouds
593,Carauari,BR,2021-03-27 00:14:08,-4.8828,-66.8958,74.73,95,96,1.3,overcast clouds
594,Bossangoa,CF,2021-03-27 00:14:08,6.4926,17.4552,70.54,72,91,3.83,overcast clouds
595,Codrington,AU,2021-03-27 00:14:08,-38.2667,141.9667,62.15,63,53,13.85,broken clouds
596,La Asuncion,VE,2021-03-27 00:14:09,11.0333,-63.8628,76.33,83,21,15.35,few clouds
597,Magistralnyy,RU,2021-03-27 00:14:09,56.1725,107.4458,22.57,94,91,2.28,light snow
598,Lasa,IT,2021-03-27 00:14:10,46.6166,10.7002,50.0,87,0,2.42,clear sky
599,Rio Grande City,US,2021-03-27 00:14:10,26.3798,-98.8203,86.0,55,5,1.01,clear sky
600,Varadero,CU,2021-03-27 00:14:11,23.1536,-81.2514,77.0,61,20,12.66,few clouds
601,Belyy Yar,RU,2021-03-27 00:14:11,53.6039,91.3903,15.8,92,18,4.47,few clouds
602,Port Hardy,CA,2021-03-27 00:14:12,50.6996,-127.4199,46.4,81,90,9.22,overcast clouds
603,Hami,CN,2021-03-27 00:14:12,42.8,93.45,52.99,38,61,7.76,broken clouds
604,Aksu,CN,2021-03-27 00:14:13,41.1231,80.2644,55.6,28,100,4.81,overcast clouds
605,Pochutla,MX,2021-03-27 00:14:14,15.7432,-96.4661,84.2,61,40,11.5,scattered clouds
606,Araguari,BR,2021-03-27 00:14:14,-18.6472,-48.1872,78.8,44,0,2.3,clear sky
607,Kingston,JM,2021-03-27 00:11:34,17.997,-76.7936,82.4,57,75,25.32,broken clouds
608,High Level,CA,2021-03-27 00:14:15,58.5169,-117.136,33.8,40,20,6.91,few clouds
609,Ulcinj,ME,2021-03-27 00:14:15,41.9294,19.2244,46.81,57,2,3.67,clear sky
610,Olafsvik,IS,2021-03-27 00:14:15,64.8945,-23.7142,18.72,62,96,10.85,overcast clouds
611,Bo Phloi,TH,2021-03-27 00:14:16,14.3236,99.5161,84.0,70,93,3.15,overcast clouds
612,Tineo,ES,2021-03-27 00:14:17,43.3376,-6.4145,52.0,93,75,2.3,broken clouds
613,Susani,RO,2021-03-27 00:14:17,44.5833,24.1,41.0,69,0,3.44,clear sky
614,Mackay,AU,2021-03-27 00:12:10,-21.15,149.2,82.99,78,0,6.91,clear sky
615,Payson,US,2021-03-27 00:14:18,40.0444,-111.7321,46.4,53,40,20.71,scattered clouds
616,Ayorou,NE,2021-03-27 00:14:18,14.7308,0.9174,82.9,10,2,17.0,clear sky
617,Oranjemund,NA,2021-03-27 00:14:19,-28.55,16.4333,60.62,82,0,3.4,clear sky
618,Aylmer,CA,2021-03-27 00:13:33,42.7668,-80.983,41.0,87,90,4.61,overcast clouds
619,Jurado,CO,2021-03-27 00:14:19,7.1053,-77.7641,78.22,88,97,4.27,light rain
620,Zhuhai,CN,2021-03-27 00:14:20,22.2769,113.5678,75.99,94,20,5.75,few clouds
621,Vytegra,RU,2021-03-27 00:14:20,61.0064,36.4481,32.14,97,100,1.25,overcast clouds
622,Bhum,IN,2021-03-27 00:14:20,18.4667,75.6667,78.84,16,0,10.56,clear sky
623,Saint-Pierre,RE,2021-03-27 00:14:21,-21.3393,55.4781,77.0,73,0,4.61,clear sky
624,Solwezi,ZM,2021-03-27 00:14:21,-12.1688,26.3894,61.52,98,100,4.14,moderate rain
625,Asau,RO,2021-03-27 00:14:22,46.4333,26.4,34.0,60,15,4.72,light snow
626,Bria,CF,2021-03-27 00:14:22,6.5423,21.9863,68.23,90,96,2.62,overcast clouds
627,Beringovskiy,RU,2021-03-27 00:12:18,63.05,179.3167,3.42,84,89,12.84,overcast clouds
628,Bengkulu,ID,2021-03-27 00:14:22,-3.8004,102.2655,76.68,89,99,4.12,overcast clouds
629,Ponta Delgada,PT,2021-03-27 00:14:23,37.7333,-25.6667,55.4,76,20,6.91,few clouds
630,Kannod,IN,2021-03-27 00:14:23,22.6667,76.7333,75.92,15,0,3.98,clear sky
631,Sovetskaya Gavan,RU,2021-03-27 00:12:17,48.9723,140.2878,31.32,72,82,2.68,broken clouds
632,Ciudad Bolivar,VE,2021-03-27 00:14:24,8.1222,-63.5497,83.82,55,90,15.9,overcast clouds
633,Vagur,FO,2021-03-27 00:14:24,61.4732,-6.8119,38.84,61,72,25.52,broken clouds
634,Kaduna,NG,2021-03-27 00:14:02,10.5222,7.4383,78.46,12,85,10.51,overcast clouds
635,Kloulklubed,PW,2021-03-27 00:14:25,7.0419,134.2556,77.0,100,90,10.36,heavy intensity rain
636,Zonguldak,TR,2021-03-27 00:14:26,41.25,31.8333,30.67,99,100,3.83,light snow
637,Banjarmasin,ID,2021-03-27 00:14:26,-3.3244,114.591,78.8,94,20,2.3,few clouds
638,Rehoboth,NA,2021-03-27 00:14:26,-23.3167,17.0833,65.95,43,0,5.75,clear sky
639,Walvis Bay,NA,2021-03-27 00:14:27,-22.9575,14.5053,61.0,94,37,2.3,scattered clouds
640,Bobrovytsya,UA,2021-03-27 00:14:27,50.75,31.3833,41.0,81,0,4.47,clear sky
641,Zhigalovo,RU,2021-03-27 00:14:28,54.8097,105.1578,25.86,94,100,5.23,overcast clouds
642,Acapulco,MX,2021-03-27 00:11:15,16.8634,-99.8901,82.4,69,40,6.91,scattered clouds
643,Launceston,AU,2021-03-27 00:14:28,-41.45,147.1667,59.0,82,75,12.66,broken clouds
644,Juruti,BR,2021-03-27 00:14:29,-2.1522,-56.0922,73.78,88,81,3.94,broken clouds
645,Lokoja,NG,2021-03-27 00:14:29,7.8024,6.743,86.5,38,31,3.85,scattered clouds
646,Svetlyy,RU,2021-03-27 00:14:30,54.675,20.1347,42.01,75,11,6.71,few clouds
647,Yermakovskoye,RU,2021-03-27 00:14:30,53.2831,92.4003,11.64,95,16,2.24,few clouds
648,Tokur,RU,2021-03-27 00:14:31,53.1333,132.9,20.84,76,82,3.0,broken clouds
649,Gigmoto,PH,2021-03-27 00:14:31,13.7796,124.39,81.43,79,100,9.1,overcast clouds
650,Vao,NC,2021-03-27 00:14:31,-22.6667,167.4833,78.3,74,16,13.02,few clouds
651,San Andres,CO,2021-03-27 00:14:32,12.5847,-81.7006,78.8,83,40,11.5,scattered clouds
652,Dryden,CA,2021-03-27 00:14:32,49.7833,-92.7503,32.0,80,90,6.91,overcast clouds
653,Galesong,ID,2021-03-27 00:11:06,-5.3166,119.3661,75.2,100,20,3.44,light rain
654,Da Nang,VN,2021-03-27 00:14:33,16.0678,108.2208,75.2,100,75,4.61,mist
655,Muros,ES,2021-03-27 00:14:33,42.7762,-9.0603,44.01,92,41,9.64,scattered clouds
656,Ugoofaaru,MV,2021-03-27 00:14:33,5.6667,73.0,83.61,74,100,14.9,overcast clouds
657,Bogorodskoye,RU,2021-03-27 00:14:34,56.55,37.8833,30.31,98,100,2.75,overcast clouds
658,Goderich,CA,2021-03-27 00:14:34,43.7501,-81.7165,35.6,87,62,1.14,broken clouds
659,Sawtell,AU,2021-03-27 00:14:35,-30.3833,153.1,75.99,68,82,5.75,broken clouds
660,Grand Gaube,MU,2021-03-27 00:14:35,-20.0064,57.6608,75.0,86,17,1.63,few clouds
661,Shelburne,CA,2021-03-27 00:14:36,44.0787,-80.2041,35.01,100,90,9.24,overcast clouds
662,Quelimane,MZ,2021-03-27 00:14:36,-17.8786,36.8883,71.73,88,0,3.18,clear sky
663,Samarai,PG,2021-03-27 00:14:36,-10.6167,150.6667,83.98,74,92,9.98,overcast clouds
664,Leh,IN,2021-03-27 00:14:37,34.1667,77.5833,35.83,48,3,3.89,clear sky
665,Ukiah,US,2021-03-27 00:14:37,39.1502,-123.2078,73.4,18,1,3.96,clear sky
666,Mogocha,RU,2021-03-27 00:14:38,53.7333,119.7667,27.63,91,97,0.98,overcast clouds
667,Belmonte,BR,2021-03-27 00:14:38,-15.8631,-38.8828,78.8,73,0,8.05,clear sky
668,Aswan,EG,2021-03-27 00:14:38,24.0934,32.907,61.84,32,2,16.46,clear sky
669,Karpathos,GR,2021-03-27 00:14:39,35.507,27.2132,53.6,50,12,13.8,few clouds
670,Maniitsoq,GL,2021-03-27 00:14:39,65.4167,-52.9,-9.22,73,72,10.87,broken clouds
671,Maragogi,BR,2021-03-27 00:14:40,-9.0122,-35.2225,77.43,83,86,6.71,overcast clouds
672,Ancud,CL,2021-03-27 00:14:40,-41.8697,-73.8203,55.99,82,0,4.61,clear sky
673,Killin,US,2021-03-27 00:14:41,33.6123,-91.7412,73.4,46,1,5.75,clear sky
674,Mattru,SL,2021-03-27 00:14:41,7.6244,-11.8332,78.15,85,22,1.92,few clouds
675,Indiaroba,BR,2021-03-27 00:14:42,-11.5192,-37.5117,74.35,78,67,3.94,broken clouds
676,Jizan,SA,2021-03-27 00:14:42,17.3333,42.6667,78.8,65,0,4.61,clear sky
677,Razdolnoye,RU,2021-03-27 00:14:42,43.55,131.9167,41.0,93,90,13.42,overcast clouds
678,Kuala Terengganu,MY,2021-03-27 00:14:43,5.3302,103.1408,78.8,94,40,1.14,scattered clouds
679,Stege,DK,2021-03-27 00:14:43,54.987,12.2846,48.0,100,90,15.17,overcast clouds
680,Lahij,YE,2021-03-27 00:14:44,13.1667,44.5833,69.12,56,84,4.47,broken clouds
681,Keuruu,FI,2021-03-27 00:14:44,62.2667,24.7,36.0,93,0,6.91,clear sky
682,Bud,US,2021-03-27 00:14:45,39.447,-86.1758,52.0,79,100,4.12,overcast clouds
683,Saintes,FR,2021-03-27 00:14:45,45.6667,-0.75,44.6,93,40,4.61,scattered clouds
684,Chara,RU,2021-03-27 00:14:46,56.9064,118.2631,22.78,92,100,1.66,overcast clouds
685,Togur,RU,2021-03-27 00:14:47,58.3631,82.8265,30.88,94,100,10.2,overcast clouds
686,Tadine,NC,2021-03-27 00:14:47,-21.55,167.8833,81.93,67,28,10.25,scattered clouds
687,Orahovac,XK,2021-03-27 00:14:47,42.3994,20.6547,30.2,86,0,2.51,clear sky
688,Conceicao Do Araguaia,BR,2021-03-27 00:14:48,-8.2578,-49.2647,73.8,86,100,2.37,overcast clouds
689,Yanam,IN,2021-03-27 00:14:48,16.7333,82.2167,72.0,90,22,1.14,few clouds
690,Chapais,CA,2021-03-27 00:14:48,49.7834,-74.8492,26.6,63,75,12.66,broken clouds
691,Belgrade,RS,2021-03-27 00:10:19,44.804,20.4651,44.01,56,0,8.05,clear sky
692,Talcahuano,CL,2021-03-27 00:14:49,-36.7167,-73.1167,60.8,67,0,12.66,clear sky
