,City,Country,Max Temp,Current Description,Lat,Lng,Hotel Name
0,Karratha,AU,82.78,clear sky,-20.7377,116.8463,ibis Styles Karratha
1,Bonthe,SL,78.39,clear sky,7.5264,-12.505,Bonthe Holiday Village
3,Bulolo,PG,83.08,overcast clouds,-7.2,146.65,Pine Lodge Bulolo
4,Cape Town,ZA,63.0,light rain,-33.9258,18.4232,Southern Sun Waterfront Cape Town
7,Kapaa,US,80.01,light rain,22.0752,-159.319,Sheraton Kauai Resort at Coconut Beach
9,Victoria,HK,73.0,overcast clouds,22.2855,114.1577,Mini Hotel Central
10,Manavalakurichi,IN,82.4,mist,8.1333,77.3,Udaya Boys Hostel
11,Port Alfred,ZA,69.37,overcast clouds,-33.5906,26.891,The Halyards Hotel
13,Katherine,AU,86.0,overcast clouds,-14.4667,132.2667,Pine Tree Motel
17,Trinidad,BO,82.4,scattered clouds,-14.8333,-64.9,Hotel Piesta
18,Bathsheba,BB,77.0,scattered clouds,13.2167,-59.5167,Atlantis Hotel
19,Puerto Ayora,EC,80.01,broken clouds,-0.7393,-90.3518,Finch Bay Galapagos Hotel
21,Carutapera,BR,73.24,overcast clouds,-1.195,-46.02,Lidera
22,Vaini,TO,84.2,light rain,-21.2,-175.2,Keleti Beach Resort
23,Bredasdorp,ZA,64.4,clear sky,-34.5322,20.0403,Bredasdorp Country Manor
25,Sur,OM,78.12,overcast clouds,22.5667,59.5289,Sur Plaza Hotel
30,Sao Filipe,CV,70.52,few clouds,14.8961,-24.4956,Tortuga B&B
32,Castro,BR,64.76,broken clouds,-24.7911,-50.0119,CHACARA BAILLY
33,Jieshi,CN,71.01,overcast clouds,22.8134,115.8257,Yuehai Hotel
35,Rikitea,PF,79.0,light rain,-23.1203,-134.9692,Pension Maro'i
36,Biak,ID,74.37,overcast clouds,-0.9131,122.8766,Penginapan Kim
37,Rawson,AR,60.3,clear sky,-43.3002,-65.1023,Hosteria Sampedro
39,Saint George,US,60.01,clear sky,37.1041,-113.5841,Best Western Plus Abbey Inn
40,Ca Mau,VN,81.64,broken clouds,9.1769,105.15,Khách Sạn Mường Thanh Luxury Cà Mau
41,Punta,PH,80.76,overcast clouds,8.9897,125.34,Vyjannex boarding house
43,West Bay,KY,82.4,few clouds,19.3667,-81.4167,Calypso Cove
45,Makakilo City,US,82.4,overcast clouds,21.3469,-158.0858,Marriott's Ko Olina Beach Club
46,Gariaband,IN,69.4,clear sky,20.635,82.0614,हंसराज ट्रैक्टर
47,Huicheng,CN,64.4,scattered clouds,23.0385,116.2899,Huilai Hotel
49,Hilo,US,80.6,broken clouds,19.7297,-155.09,Hilo Hawaiian Hotel
50,Atuona,PF,80.92,scattered clouds,-9.8,-139.0333,Villa Enata
51,Tanete,ID,78.49,light rain,-3.9443,119.7848,Wisma Tri Multi
53,Harper,LR,78.3,clear sky,4.375,-7.7169,Screensaver
54,Kruisfontein,ZA,64.0,few clouds,-34.0033,24.7314,Oyster Bay House Rental
55,Butaritari,KI,81.77,scattered clouds,3.0707,172.7902,Isles Sunset Lodge
56,Lompoc,US,61.0,few clouds,34.6391,-120.4579,Holiday Inn Express Lompoc
60,Hobart,AU,60.01,broken clouds,-42.8794,147.3294,Mantra on Collins Hobart
64,Luganville,VU,84.63,broken clouds,-15.5333,167.1667,The Espiritu Hotel
67,Hithadhoo,MV,82.42,broken clouds,-0.6,73.0833,Scoop Guest House
68,San Cristobal,VE,71.6,fog,7.7669,-72.225,Posada Villaven C.A.
70,Tuatapere,NZ,60.76,moderate rain,-46.1333,167.6833,Ron and Tony's Bed & Breakfast
71,Ponta Do Sol,PT,64.4,scattered clouds,32.6667,-17.1,Hotel do Campo
72,Numan,NG,82.83,overcast clouds,9.4667,12.0333,Zangun Motel
73,Faanui,PF,82.89,light rain,-16.4833,-151.75,Bora-Bora Pearl Beach Resort & Spa
74,San Policarpo,PH,81.07,broken clouds,12.1791,125.5072,JM Lodge
76,Sumbe,AO,76.3,overcast clouds,-11.2061,13.8437,Hotel Ritz Sumbe
82,Calama,CL,64.4,clear sky,-22.4667,-68.9333,Diego De Almagro Calama
83,Wodonga,AU,63.0,broken clouds,-36.1167,146.8833,The Hume Inn Motel
85,Camacha,PT,62.6,scattered clouds,33.0833,-16.3333,Hotel Porto Santo & Spa
86,Meulaboh,ID,76.14,overcast clouds,4.1363,96.1285,Kost Pria
88,Nanakuli,US,80.6,overcast clouds,21.3906,-158.1547,Camp Pālehua
89,Mecca,SA,70.9,clear sky,21.4267,39.8261,"Makkah Clock Royal Tower, A Fairmont Hotel"
91,Chuy,UY,67.78,overcast clouds,-33.6971,-53.4616,Nuevo Hotel Plaza
93,Ahipara,NZ,70.09,overcast clouds,-35.1667,173.1667,Ahipara Holiday Park
94,Mataura,NZ,61.32,light rain,-46.1927,168.8643,Ellie's Villa
95,New Norfolk,AU,60.01,light rain,-42.7826,147.0587,The Shingles Riverside Cottages
96,Dicabisagan,PH,79.0,broken clouds,17.0818,122.4157,Nancy Montanes Bernardo
97,Broken Hill,AU,66.2,clear sky,-31.95,141.4333,Royal Exchange Hotel
99,Timbiras,BR,73.0,moderate rain,-4.2553,-43.9406,Casa jaboatao Guimarães
102,Manthani,IN,78.37,clear sky,18.65,79.6667,Social Welfare Boys Hostel
103,Moroni,KM,80.29,few clouds,-11.7022,43.2551,Hotel les Arcades
104,Port Blair,IN,82.27,overcast clouds,11.6667,92.75,Welcomhotel Bay Island Port Blair
105,Tezu,IN,68.04,clear sky,27.9167,96.1667,Circuit House
106,Wajir,KE,79.02,broken clouds,1.7471,40.0573,Al-bustan Hotel And Restaurant.
107,Redlands,US,73.4,clear sky,34.0556,-117.1825,Dynasty Suites Redlands
108,Saint-Georges,GD,78.8,few clouds,12.0564,-61.7485,Siesta Hotel
109,Mahebourg,MU,75.2,few clouds,-20.4081,57.7,Shandrani Beachcomber Resort & Spa
110,Effingham,US,79.0,broken clouds,32.3669,-81.3332,Elizabeth Hobbs
111,Methven,NZ,81.0,broken clouds,-43.6333,171.65,Brinkley Resort
115,Touros,BR,75.2,broken clouds,-5.1989,-35.4608,INN NEW HORIZON
116,Bethel,US,68.0,broken clouds,41.3712,-73.414,Courtyard by Marriott Danbury
117,Poplar Bluff,US,64.0,clear sky,36.757,-90.3929,Holiday Inn Poplar Bluff
119,La Ligua,CL,66.2,clear sky,-32.4524,-71.2311,Hotel Anchimallen
120,Hermanus,ZA,62.01,light rain,-34.4187,19.2345,Misty Waves Boutique Hotel
121,Mazagao,BR,80.6,few clouds,-0.115,-51.2894,Recanto dos Ferreiras
122,Kilindoni,TZ,82.51,light rain,-7.9139,39.6668,Bustani B&B
123,Aden,YE,78.31,broken clouds,12.7794,45.0367,Sama Emirate Hotel
127,Coahuayana,MX,75.2,broken clouds,18.7333,-103.6833,El rranchito michuacan de ocampos
128,Avarua,CK,84.2,broken clouds,-21.2078,-159.775,Paradise Inn
131,Arraial Do Cabo,BR,78.8,clear sky,-22.9661,-42.0278,Pousada Porto Praia
133,East London,ZA,68.97,broken clouds,-33.0153,27.9116,Tu Casa
134,Yulara,AU,78.8,scattered clouds,-25.2406,130.9889,Desert Gardens Hotel - Ayers Rock Resort
135,Airai,TL,67.68,overcast clouds,-8.9266,125.4092,Juvinal Martin
136,Saint-Philippe,RE,77.0,few clouds,-21.3585,55.7679,"Chambres d'hôte ""La Trinité"""
137,Barranca,PE,70.39,scattered clouds,-10.75,-77.7667,El Olivar Hospedaje
145,Spring Hill,US,80.01,clear sky,28.4769,-82.5255,Room of The world By traveline Plus
146,Fukue,JP,64.4,broken clouds,32.6881,128.8419,Goto Guesthouse Utojuku & SA Car Rental
147,Mozarlandia,BR,74.84,overcast clouds,-14.7447,-50.5706,Hotel Santa Mônica
148,Tandil,AR,62.01,light rain,-37.3217,-59.1332,HOSTAL DE LA SIERRA TANDIL
154,Santa Isabel,BR,77.0,clear sky,-23.3156,-46.2214,Chácara Sombra do Altíssimo
155,Qui Nhon,VN,75.99,overcast clouds,13.7667,109.2333,Hoang Yen Canary Hotel
157,Camana,PE,70.93,overcast clouds,-16.6228,-72.7111,Hostal Morales
158,Kalmunai,LK,78.21,moderate rain,7.4167,81.8167,VS Villa
159,Itoman,JP,73.4,scattered clouds,26.1247,127.6694,Southern Beach Hotel & Resort Okinawa
160,Kutum,SD,65.91,broken clouds,14.2,24.6667,Dibbo areaمنطقة دبو
164,Tarauaca,BR,74.37,broken clouds,-8.1614,-70.7656,Flat Temporada
167,Sharqpur,PK,66.2,smoke,31.4633,74.1,Salim's Dental Clinic..Dr.Awais
168,Puerto Escondido,MX,82.4,scattered clouds,15.85,-97.0667,Aldea del Bazar Hotel and Spa
170,Inhambane,MZ,74.86,light rain,-23.865,35.3833,Oceano
171,Alice Springs,AU,87.01,scattered clouds,-23.7,133.8833,Desert Palms Alice Springs
177,Tuni,IN,74.43,scattered clouds,17.35,82.55,Sai Krishna Lodge
179,Port Elizabeth,ZA,68.0,clear sky,-33.918,25.5701,39 On Nile Guest House
181,Naifaru,MV,83.86,overcast clouds,5.4444,73.3657,Naifaru Residence Guest House
183,Puerto Madero,MX,86.0,broken clouds,14.7208,-92.4215,Hotel La Central
184,Necochea,AR,62.01,overcast clouds,-38.5473,-58.7368,dyd -mar Hotel
188,Ko Samui,TH,82.99,scattered clouds,9.5357,99.9357,"The Passage Samui Villas & Resort, Thailand"
190,Souillac,MU,75.2,few clouds,-20.5167,57.5167,Shanti Maurice Resort & Spa
191,Kavieng,PG,83.28,light rain,-2.5744,150.7967,Nusa Island Retreat
192,Kununurra,AU,82.4,light rain,-15.7667,128.7333,Hotel Kununurra
193,Te Anau,NZ,64.67,moderate rain,-45.4167,167.7167,Kingsgate Hotel Te Anau
196,Carnarvon,AU,77.0,overcast clouds,-24.8667,113.6333,Hospitality Carnarvon
197,Tuy Hoa,VN,76.37,overcast clouds,13.0833,109.3,CenDeluxe Hotel Tuy Hoa
199,San Jose,US,72.0,clear sky,37.3394,-121.895,The Westin San Jose
202,Hambantota,LK,78.64,light rain,6.1241,81.1185,Bungalow 63
206,Port-Gentil,GA,80.6,light rain,-0.7193,8.7815,Fengshui Residence
208,San Patricio,US,78.8,scattered clouds,28.017,-97.5169,"Motel 6 Sinton, TX"
209,Mar Del Plata,AR,64.99,mist,-38.0023,-57.5575,Gran Hotel Mar del Plata
211,Cabedelo,BR,75.2,scattered clouds,-6.9811,-34.8339,Hotel Pigalle
213,Westport,US,68.0,haze,41.1415,-73.3579,The Westport Inn
215,Betul,IN,72.01,clear sky,21.9153,77.8961,STARiHotel Betul MP
218,Anjiang,CN,63.79,overcast clouds,27.3194,110.1031,Dahua Hotel
219,Forbes,AU,70.0,few clouds,-33.3833,148.0167,Lake Forbes Motel
220,Montepuez,MZ,68.04,scattered clouds,-13.1256,38.9997,Complexo Messalo
224,Maryville,US,69.8,broken clouds,35.7565,-83.9705,Holiday Inn Express & Suites Alcoa (Knoxville Airport)
226,Amarante Do Maranhao,BR,72.18,moderate rain,-5.5667,-46.7422,Hotéis Caçulinha
227,Orange,US,63.0,few clouds,33.7,-117.7675,Meadows
231,Waingapu,ID,80.71,overcast clouds,-9.6567,120.2641,Pondok Wisata Elim
233,Umm Lajj,SA,67.06,clear sky,25.0213,37.2685,Moon light Furnished Units
234,Pangobilian,PH,82.27,broken clouds,8.8011,117.8594,Sir Brooke's Resort
235,Houston,US,79.0,clear sky,29.7633,-95.3633,"Hotel ICON, Autograph Collection"
237,Saint-Joseph,RE,77.0,clear sky,-21.3667,55.6167,"""Plantation Bed and Breakfast"
238,Labuhan,ID,79.47,overcast clouds,-6.8844,112.2051,PT PPI Lamongan Tambak C
239,Anuradhapura,LK,75.24,overcast clouds,8.3565,80.4173,Nilketha Villa Eco Hotel
243,Caxias Do Sul,BR,68.0,moderate rain,-29.1681,-51.1794,Cosmos Hotel
245,Bambous Virieux,MU,77.0,few clouds,-20.3428,57.7575,Casa Tia Villa
248,Russell,US,68.0,broken clouds,32.3502,-85.1999,Macs
249,Dalby,AU,69.8,broken clouds,-27.1833,151.2667,Kobbers Motor Inn Dalby
251,Cidreira,BR,70.66,moderate rain,-30.1811,-50.2056,Hotel Castelo
254,Georgetown,MY,78.01,mist,5.4112,100.3354,Cititel Penang
257,Sacramento,US,73.99,clear sky,38.4666,-121.3177,Woodside Homes
258,Lorengau,PG,83.28,light rain,-2.0226,147.2712,Lorengau Harbourside Hotel
259,Pokhara,NP,63.84,clear sky,28.2333,83.9833,Butterfly Lodge
261,Bairiki,KI,86.0,scattered clouds,1.3292,172.9752,Tarawa Boutique Hotel
264,Peddapalli,IN,77.72,clear sky,18.6167,79.3667,THE PEDDAPALLI ROCKS/VLOGS/EXTRAS & AF PRODUCTIONS
265,Byron Bay,AU,75.0,broken clouds,-28.65,153.6167,Backpackers Inn on the Beach
266,Saldanha,ZA,62.6,moderate rain,-33.0117,17.9442,Blue Bay Lodge
269,Sungaipenuh,ID,65.19,light rain,-2.0833,101.3833,Hotel Jaya Wisata 2
270,Puga,MX,80.6,few clouds,21.5833,-104.8167,Del sol
271,Caravelas,BR,75.92,clear sky,-17.7125,-39.2481,Pousada dos Navegantes
272,Macaubas,BR,71.33,scattered clouds,-13.0194,-42.6986,Macaúbas Palace Hotel
273,Chicama,PE,69.8,fog,-7.8447,-79.1469,Chicama Me Gusta
274,Port Hueneme,US,62.6,clear sky,34.1478,-119.1951,Hampton Inn Channel Islands Harbor
275,Prado,BR,76.57,clear sky,-17.3411,-39.2208,INN CORNER RIVER - PRADO - BAHIA - HOUSING AND HOTEL
277,Jaguarari,BR,76.42,overcast clouds,-10.2639,-40.1958,Hotel Quintal De Casa
282,Sibolga,ID,77.05,overcast clouds,1.7427,98.7792,Hotel Syariah CN Darussalam
283,Dunedin,NZ,66.0,light rain,-45.8742,170.5036,Scenic Hotel Southern Cross
285,Kaitangata,NZ,63.0,overcast clouds,-46.2817,169.8464,Kaitangata Motor Camp
286,Marawi,PH,79.0,overcast clouds,7.9986,124.2928,Derogongan Residence
289,Arecibo,PR,73.99,clear sky,18.4724,-66.7157,Atlantic Sand Oasis
290,Victor Harbor,AU,69.01,clear sky,-35.5667,138.6167,McCracken Country Club
293,Gushikawa,JP,73.4,broken clouds,26.3544,127.8686,Kirari Guest House
294,Bandarbeyla,SO,77.36,overcast clouds,9.4942,50.8122,JABIR HOTEL
295,Monze,ZM,64.18,scattered clouds,-16.2833,27.4833,Value Lodge
297,Leo,BF,84.11,scattered clouds,11.1,-2.1,Hotel Sissilis
298,Port Lincoln,AU,65.08,scattered clouds,-34.7333,135.8667,Port Lincoln Hotel
306,Biloela,AU,81.1,clear sky,-24.4167,150.5,Silo Motor Inn
307,Azoyu,MX,80.8,few clouds,16.7167,-98.7333,Hotel San Luis
311,Cofradia,HN,87.8,scattered clouds,15.4,-88.15,COL.30 DE ENERO
312,Kathu,TH,87.01,scattered clouds,7.9178,98.3332,Novotel Phuket Resort
314,Chokwe,MZ,71.31,scattered clouds,-24.5333,32.9833,Complexo Sonho Real
315,Bentiu,SS,86.76,overcast clouds,9.2333,29.8333,Mandela hôtel
317,Padang,ID,75.2,broken clouds,-0.9492,100.3543,Mercure Padang
318,Faro,PT,62.6,clear sky,37.0194,-7.9322,Hotel Faro & Beach Club
323,Diu,IN,79.41,clear sky,20.7141,70.9822,Hotel Relax Inn
324,Los Llanos De Aridane,ES,68.0,overcast clouds,28.6585,-17.9182,Valle Aridane
325,Faya,SA,60.8,clear sky,18.3851,42.4509,مقبرة ال مجمل
326,Hokitika,NZ,64.22,broken clouds,-42.7167,170.9667,Beachfront Hotel Hokitika
327,Tabou,CI,78.21,clear sky,4.423,-7.3528,hotêl doufoulougou
328,Namatanai,PG,83.44,moderate rain,-3.6667,152.4333,Namatanai Hotel
330,Ures,MX,73.99,clear sky,29.4333,-110.4,Hotel HACIENDA San Francisco
331,Shiraz,IR,64.4,clear sky,29.6036,52.5388,Kowsar Hotel
334,Huilong,CN,63.0,light rain,31.8111,121.655,Hilton Garden Inn Qidong
340,Mount Isa,AU,86.0,clear sky,-20.7333,139.5,ibis Styles Mt Isa Verona
341,Salalah,OM,73.4,clear sky,17.0151,54.0924,HAMDAN PLAZA HOTEL SALALAH
345,Acarau,BR,76.17,overcast clouds,-2.8856,-40.12,castelo pizzaria
347,Kimbe,PG,88.34,overcast clouds,-5.5502,150.1429,Kimbe Bay Hotel
348,Wanaka,NZ,64.15,light rain,-44.7,169.15,Wanaka Homestead Lodge and Cottages
349,Dingle,PH,81.03,broken clouds,10.9995,122.6711,SEGAYA PROPERTY
350,Excelsior Springs,US,62.01,clear sky,39.3392,-94.2261,The Elms Hotel & Spa
352,Buala,SB,85.35,light rain,-8.145,159.5921,Maringe Lagoon Lodge
355,Cayenne,GF,80.01,scattered clouds,4.9333,-52.3333,Hôtel Le Dronmi
358,San Pedro,PH,86.0,few clouds,14.35,121.0167,OYO 412 Viewfort Venue
359,Sinnamary,GF,77.86,scattered clouds,5.3833,-52.95,ALETHEIA Appartement Sinnamary
360,Cocorit,MX,73.4,clear sky,27.5833,-109.9667,Kaba Motel
361,Mayo,US,68.0,clear sky,38.8876,-76.5119,Resorts Resource Group International
362,Kisangani,CD,67.51,overcast clouds,0.5167,25.2,Grand Ramela Hotel
363,Porirua,NZ,69.01,broken clouds,-41.1333,174.85,Amethyst Court Motor lodge (Best Price on direct bookings)
366,Ponta Pora,BR,74.3,few clouds,-22.5361,-55.7256,Hotel Pousada do Bosque
367,Kaeo,NZ,69.01,light rain,-35.1,173.7833,Bushido Lodge
368,La Primavera,CO,77.5,heavy intensity rain,5.4906,-70.4092,La Riviera Hotel Colonial
370,Geraldton,AU,60.8,clear sky,-28.7667,114.6,Broadwater Mariner Resort
372,Isangel,VU,82.4,broken clouds,-19.55,169.2667,Volcano Sea View Tree House
373,Nsanje,MW,71.56,clear sky,-16.92,35.262,Nsanje Discovery Lodge
374,Kapit,MY,73.31,light rain,2.0167,112.9333,Hotel Meligai Kapit
376,Omboue,GA,77.61,overcast clouds,-1.5746,9.2618,Hotel Olako
378,Bowen,AU,84.2,scattered clouds,-20.0167,148.2333,Castle Motor Lodge Motel
379,Poso,ID,75.42,overcast clouds,-1.3959,120.7524,Hotel 77 Poso
380,Bubaque,GW,76.37,clear sky,11.2833,-15.8333,"Casa Dora, Bubaque"
384,Maxixe,MZ,73.78,light rain,-23.8597,35.3472,Oceano
385,Bintulu,MY,77.0,scattered clouds,3.1667,113.0333,900 Boutique INN
390,Dillon,US,73.0,clear sky,34.4166,-79.3712,Dillon Express Inn
392,Cairns,AU,87.8,broken clouds,-16.9167,145.7667,Mantra Trilogy Cairns
394,Monte Alegre,BR,74.91,broken clouds,-2.0078,-54.0692,Hotel Shekinah
397,Waipawa,NZ,69.8,scattered clouds,-41.4122,175.5153,Tora Coastal Walk
398,Riyadh,SA,82.4,clear sky,24.6877,46.7219,InterContinental Riyadh
401,Touho,NC,80.58,few clouds,-20.7833,165.2333,Auberge Timay Evasion
403,Atar,MR,80.71,clear sky,20.5169,-13.0499,Oumou Elghoura
404,Male,MV,82.4,moderate rain,4.1748,73.5089,Hotel Octave Maldives
408,Pacifica,US,61.0,clear sky,37.6138,-122.4869,"Pacifica Lighthouse, Trademark Collection by Wyndham"
413,Port Hedland,AU,82.4,clear sky,-20.3167,118.5667,The Esplanade Hotel
416,Santa Cruz,BO,78.8,broken clouds,-17.8,-63.1667,Aviador Hotel Boutique
417,Kirakira,SB,85.78,broken clouds,-10.4544,161.9205,SanBiz Lodge
418,Sao Joao Da Barra,BR,76.77,few clouds,-21.6403,-41.0511,Pousada Porto De Canoas
419,Balotra,IN,77.18,clear sky,25.8333,72.2333,Hotel City Square
420,Humaita,BR,77.14,broken clouds,-7.5061,-63.0208,Corrêa Hotel
422,Ho Chi Minh City,VN,80.6,few clouds,10.75,106.6667,Windsor Plaza Hotel
424,Abeche,TD,79.05,broken clouds,13.8292,20.8324,Assaleh Hamdan Haroune
425,Kahului,US,84.2,scattered clouds,20.8947,-156.47,Maui Seaside Hotel
428,Camargo,MX,81.18,scattered clouds,27.6667,-105.1667,Hotel Santa Fe
434,Sukumo,JP,63.52,clear sky,32.9333,132.7333,Sukumojo
435,Orocue,CO,77.22,moderate rain,4.7912,-71.3354,Hotel Brisas de San Miguel
436,Mount Pleasant,US,73.4,moderate rain,32.7941,-79.8626,Best Western Patriots Point
441,Sultanpur,IN,69.33,clear sky,26.2667,82.0667,OYO 49568 Vrindavan Guest House
442,Batticaloa,LK,79.41,moderate rain,7.7102,81.6924,Grand Star Guest House
443,Papetoai,PF,82.4,light rain,-17.4961,-149.8729,Fare Vaihere
445,Huarmey,PE,71.47,scattered clouds,-10.0681,-78.1522,Hotel Miramar
447,Gizo,SB,85.06,scattered clouds,-8.103,156.8419,Imagination Island
448,Ojinaga,MX,86.0,clear sky,29.5667,-104.4167,Suites Las Palmas
449,Teseney,ER,73.49,few clouds,15.11,36.6575,Sabrin Hotel
451,Abu Dhabi,AE,80.6,clear sky,24.4667,54.3667,Ramee Garden Hotel Apartments
452,Kalabo,ZM,68.22,moderate rain,-14.97,22.6814,Sikakubete Guest House Kalabo Town Council
454,Kpalime,TG,75.9,scattered clouds,6.9,0.6333,Hotel La Lumiere Kpalimé
455,Nizwa,OM,74.53,scattered clouds,22.9333,57.5333,Orient Apartments
459,Benguela,AO,75.99,overcast clouds,-12.5763,13.4055,Hotel Praia Morena
461,Santa Marta,CO,84.2,clear sky,11.2408,-74.199,Casa de Isabella
462,Nassau,US,66.2,clear sky,40.7507,-73.5829,Hilton Garden Inn Westbury
464,Doha,QA,78.01,clear sky,25.2867,51.5333,Doha Marriott Hotel
467,Kieta,PG,83.17,moderate rain,-6.2167,155.6333,Uruna Bay Retreat
468,Rioblanco,CO,63.52,overcast clouds,3.5308,-75.6806,hotel en tolima colombia
471,Cockburn Town,TC,77.61,clear sky,21.4612,-71.1419,Osprey Beach Hotel
473,Quibdo,CO,73.92,light rain,5.6947,-76.6611,Hotel Angeles
474,Porto Velho,BR,78.8,light rain,-8.7619,-63.9039,Hotel Central
479,Cabo San Lucas,MX,77.0,scattered clouds,22.8909,-109.9124,Hotel Tesoro Los Cabos
482,Porto Novo,BJ,84.2,scattered clouds,6.4965,2.6036,Tour Eiffel Hotel Benin
485,Neiafu,TO,84.2,light rain,-18.65,-173.9833,Mystic Sands
487,Champerico,GT,87.8,scattered clouds,14.3,-91.9167,"Hotel y restaurante ""El Diamante"""
489,Chimoio,MZ,69.8,light rain,-19.1164,33.4833,Predio Livraria Ahmed
491,Sorada,IN,75.38,few clouds,19.75,84.4333,PWD Guest House
494,Iguatu,BR,76.39,overcast clouds,-6.3594,-39.2986,Diocesano Hotel
495,Ubatuba,BR,78.8,few clouds,-23.4339,-45.0711,Hotel Coquille
496,Gondang,ID,77.45,broken clouds,-7.0109,111.3189,Tempat kost Griyo Lestari
498,Lethem,GY,79.83,overcast clouds,3.3803,-59.7968,Savannah Inn
500,Sabana Grande De Boya,DO,78.8,scattered clouds,18.945,-69.7933,Balcones De Boya
502,Half Moon Bay,US,71.6,clear sky,37.4636,-122.4286,"The Ritz-Carlton, Half Moon Bay"
504,Iseyin,NG,79.56,overcast clouds,7.9667,3.6,"NYSC Permanent Orientation Camp, Iseyin, Oyo State"
506,Takoradi,GH,79.68,scattered clouds,4.8845,-1.7554,Raybow International Hotel
508,Bom Jesus,BR,77.02,overcast clouds,-9.0744,-44.3586,Hotel Brasão & Floricultura Bella Flor
509,Arlit,NE,65.75,clear sky,18.7369,7.3853,Case de Passage De la Prefecture
510,Mbandaka,CD,69.51,overcast clouds,0.0487,18.2603,Guest House Epervier
511,Guaruja,BR,82.0,clear sky,-23.9931,-46.2564,Charme Hotel Guarujá
519,Buhe,CN,60.01,overcast clouds,30.2876,112.2298,Jingzhou Hongmen Hotel
520,Ruteng,ID,68.76,overcast clouds,-8.6136,120.4721,Hotel FX72 Ruteng
525,Vung Tau,VN,80.17,overcast clouds,10.345999999999998,107.0843,Green hotel
526,Kota Kinabalu,MY,78.8,few clouds,5.9749,116.0724,Gaya Centre Hotel
528,Wichita Falls,US,77.0,clear sky,33.9137,-98.4934,Quality Inn & Suites Wichita Falls I-44
531,La Palma,US,64.99,clear sky,33.8464,-118.0467,La Quinta Inn & Suites by Wyndham Buena Park
532,Yarada,IN,79.11,scattered clouds,17.65,83.2667,Jeevan
534,Guerrero Negro,MX,61.86,clear sky,27.9769,-114.0611,"Casa Laguna, Bed & Breakfast"
535,The Valley,AI,78.01,few clouds,18.217,-63.0578,CeBlue Villas & Beach Resort
536,Kon Tum,VN,70.5,overcast clouds,14.35,108.0,Hoa đà spa- homestay
540,Pisco,PE,70.0,clear sky,-13.7,-76.2167,Hotel San Isidro Oficial
541,Coruripe,BR,77.52,overcast clouds,-10.1256,-36.1756,Pousada e Hotel Litoral Sul
542,Yokadouma,CM,68.99,broken clouds,3.5167,15.05,Hôtel De Ville De Yokadouma
544,Las Cruces,US,68.0,scattered clouds,32.3123,-106.7783,Days End Lodge
545,Sigli,ID,80.06,overcast clouds,5.3848,95.9609,Losmen Dua Mali
547,Puerto Ayacucho,VE,74.1,moderate rain,5.6639,-67.6236,Posada Turistica Manapiare
551,Flinders,AU,75.99,clear sky,-34.5833,150.8552,Shellharbour Resort & Conference Centre
553,Dunbar,US,64.4,few clouds,38.3606,-81.7374,Holiday Inn & Suites Charleston West
555,Ahuimanu,US,82.4,scattered clouds,21.4447,-157.8378,Paradise Bay Resort
556,Malanje,AO,63.01,overcast clouds,-9.5402,16.340999999999998,Malanje Hotel
559,Finschhafen,PG,85.46,overcast clouds,-6.6024,147.8681,Cossam Guest House
560,Dedougou,BF,83.05,clear sky,12.4667,-3.4667,Hôtel Bon Séjour
561,Anderson,US,71.01,clear sky,34.5334,-82.6499,The Bleckley Inn
563,Baiao,BR,73.09,broken clouds,-2.7906,-49.6717,Hotel Eurosono
564,Laguna,US,73.99,clear sky,38.421,-121.4238,Holiday Inn Express & Suites Elk Grove Central - Hwy 99
565,Pacific Grove,US,66.0,clear sky,36.6177,-121.9166,Lovers Point Inn
567,Pocos De Caldas,BR,63.39,few clouds,-21.7878,-46.5614,Hotel Nacional Inn Poços de Caldas
572,Marsh Harbour,BS,75.92,scattered clouds,26.5412,-77.0636,Abaco Beach Resort
573,Banda Aceh,ID,78.89,overcast clouds,5.5577,95.3222,Sulthan Hotel International
574,Sabang,ID,83.84,moderate rain,5.8933,95.3214,Hotel Citra
576,Kharar,IN,64.4,clear sky,30.7444,76.6478,OYO 19817 Hotel Sartaj
577,Kerman,IR,66.2,clear sky,30.2832,57.0788,هتل آپارتمان آسام
580,Miri,MY,77.0,few clouds,4.4148,114.0089,"Mega Hotel, Miri"
581,Juegang,CN,64.0,overcast clouds,32.3174,121.1855,Rudong Y Hotel
584,Alofi,NU,84.2,light rain,-19.0595,-169.9187,Taloa Heights
586,Morondava,MG,73.81,clear sky,-20.2833,44.2833,La Case Bambou
587,Vaitape,PF,82.9,light rain,-16.5167,-151.75,Conrad Bora Bora Nui
588,Itamaraca,BR,78.8,scattered clouds,-7.7478,-34.8256,Special K's Bed & Breakfast
589,Sanchor,IN,73.63,clear sky,24.7553,71.7722,Hotel Amar Palace & AC Restaurant
590,Eureka,US,61.0,clear sky,40.8021,-124.1637,Eureka Inn Trademark By Wyndham
591,Tura,IN,68.56,clear sky,25.5198,90.2201,Hotel RIKMAN Continental
592,Sterling,US,66.2,few clouds,39.0062,-77.4286,Hampton Inn & Suites Washington-Dulles International Airport
593,Carauari,BR,74.73,overcast clouds,-4.8828,-66.8958,Hotel Fellip
594,Bossangoa,CF,70.54,overcast clouds,6.4926,17.4552,LA PERLE DE BOSTON
595,Codrington,AU,62.15,broken clouds,-38.2667,141.9667,Codrington Gardens Bed And Breakfast
596,La Asuncion,VE,76.33,few clouds,11.0333,-63.8628,Colinas de Matasiete
599,Rio Grande City,US,86.0,clear sky,26.3798,-98.8203,La Borde House
600,Varadero,CU,77.0,few clouds,23.1536,-81.2514,Hotel Tuxpan Varadero
605,Pochutla,MX,84.2,scattered clouds,15.7432,-96.4661,Hotel Posada San Jose
606,Araguari,BR,78.8,clear sky,-18.6472,-48.1872,Big Executive Hotel - Araguari MG
607,Kingston,JM,82.4,broken clouds,17.997,-76.7936,The Jamaica Pegasus Hotel
611,Bo Phloi,TH,84.0,overcast clouds,14.3236,99.5161,แอท เมืองพลอย รีสอร์ท At MuangPloy Resort
614,Mackay,AU,82.99,clear sky,-21.15,149.2,International Lodge Motel
616,Ayorou,NE,82.9,clear sky,14.7308,0.9174,Hotel Amenokal
620,Zhuhai,CN,75.99,few clouds,22.2769,113.5678,Nanyang Seascape Hotel Zhuhai Hotel
622,Bhum,IN,78.84,clear sky,18.4667,75.6667,धनंजय होम
623,Saint-Pierre,RE,77.0,clear sky,-21.3393,55.4781,Lindsey Hôtel
624,Solwezi,ZM,61.52,moderate rain,-12.1688,26.3894,Country Lodge Solwezi
628,Bengkulu,ID,76.68,overcast clouds,-3.8004,102.2655,Grage Hotel Bengkulu
630,Kannod,IN,75.92,clear sky,22.6667,76.7333,Puspendra Sardiya Kannod
632,Ciudad Bolivar,VE,83.82,overcast clouds,8.1222,-63.5497,Hotel Edi
634,Kaduna,NG,78.46,overcast clouds,10.5222,7.4383,HAMDALA HOTEL
635,Kloulklubed,PW,77.0,heavy intensity rain,7.0419,134.2556,Storyboard Beach Resort
637,Banjarmasin,ID,78.8,few clouds,-3.3244,114.59100000000001,Swiss-Belhotel Borneo Banjarmasin
642,Acapulco,MX,82.4,scattered clouds,16.8634,-99.8901,HS Hotsson Smart Acapulco
644,Juruti,BR,73.78,broken clouds,-2.1522,-56.0922,Hotel Acauã - ORLA
645,Lokoja,NG,86.5,scattered clouds,7.8024,6.742999999999999,Hotel Charvid
649,Gigmoto,PH,81.43,overcast clouds,13.7796,124.39,Cj's Travellers Inn
650,Vao,NC,78.3,few clouds,-22.6667,167.4833,Hotel Kou-Bugny
651,San Andres,CO,78.8,scattered clouds,12.5847,-81.7006,Hotel Arena Blanca
653,Galesong,ID,75.2,light rain,-5.3166,119.3661,Sapriadi Appy
654,Da Nang,VN,75.2,mist,16.0678,108.2208,Sun River Hotel
656,Ugoofaaru,MV,83.61,overcast clouds,5.6667,73.0,Ungoofaaru Inn
659,Sawtell,AU,75.99,broken clouds,-30.3833,153.1,Island Beach House Sawtell
660,Grand Gaube,MU,75.0,few clouds,-20.0064,57.6608,Veranda Paul et Virginie Hotel & Spa
662,Quelimane,MZ,71.73,clear sky,-17.8786,36.8883,Hotel Flamingo
663,Samarai,PG,83.98,overcast clouds,-10.6167,150.6667,Nuli Sapi
665,Ukiah,US,73.4,clear sky,39.1502,-123.2078,Hampton Inn Ukiah
667,Belmonte,BR,78.8,clear sky,-15.8631,-38.8828,Pousada Monte Carmelo O Pão
668,Aswan,EG,61.84,clear sky,24.0934,32.907,Nuba Nile
671,Maragogi,BR,77.43,overcast clouds,-9.0122,-35.2225,Salinas do Maragogi All Inclusive Resort
673,Killin,US,73.4,clear sky,33.6123,-91.7412,US Forestry Department
674,Mattru,SL,78.15,few clouds,7.6244,-11.8332,"Mondkor Town, Bagbo Chiefdom, Bo District"
675,Indiaroba,BR,74.35,broken clouds,-11.5192,-37.5117,Neide brito
676,Jizan,SA,78.8,clear sky,17.3333,42.6667,شهدان. ابوالحجر
678,Kuala Terengganu,MY,78.8,scattered clouds,5.3302,103.1408,Hotel Grand Continental Kuala Terengganu (4 Star)
688,Conceicao Do Araguaia,BR,73.8,overcast clouds,-8.2578,-49.2647,Tarumã Tropical Hotel
689,Yanam,IN,72.0,few clouds,16.7333,82.2167,The Regency Hotel
692,Talcahuano,CL,60.8,clear sky,-36.7167,-73.1167,Hotel Terramar
