,City,Country,Date,Lat,Lng,Max Temp,Humidity,Cloudiness,Wind Speed,Current Description
0,Mataura,NZ,2021-03-29 22:12:02,-46.1927,168.8643,57.0,97,100,1.01,overcast clouds
1,Punta Arenas,CL,2021-03-29 22:12:03,-53.15,-70.9167,48.2,93,75,3.44,broken clouds
2,Ponta Delgada,PT,2021-03-29 22:12:03,37.7333,-25.6667,60.8,88,40,12.66,scattered clouds
3,Fortuna,US,2021-03-29 22:12:03,40.5982,-124.1573,55.99,43,1,20.71,clear sky
4,Timmins,CA,2021-03-29 22:07:34,48.4669,-81.3331,33.8,51,90,13.8,overcast clouds
5,Bay Roberts,CA,2021-03-29 22:12:04,47.5999,-53.2648,41.0,93,100,7.0,moderate rain
6,Sorong,ID,2021-03-29 22:12:04,-0.8833,131.25,78.48,84,91,6.06,overcast clouds
7,Bambous Virieux,MU,2021-03-29 22:12:05,-20.3428,57.7575,75.99,88,20,6.91,few clouds
8,Puerto Ayora,EC,2021-03-29 22:12:05,-0.7393,-90.3518,82.4,78,20,10.36,few clouds
9,Kapaa,US,2021-03-29 22:12:05,22.0752,-159.319,77.0,73,75,13.8,light rain
10,Rikitea,PF,2021-03-29 22:12:06,-23.1203,-134.9692,79.03,68,11,15.05,few clouds
11,Bethel,US,2021-03-29 22:10:27,41.3712,-73.414,53.6,24,1,8.05,clear sky
12,Bluff,NZ,2021-03-29 22:12:06,-46.6,168.3333,57.0,97,100,1.01,overcast clouds
13,Ermoupolis,GR,2021-03-29 22:12:07,37.4423,24.9425,59.0,77,22,13.8,few clouds
14,Hobart,AU,2021-03-29 22:08:17,-42.8794,147.3294,55.4,62,0,5.75,clear sky
15,Jaque,PA,2021-03-29 22:12:07,7.5175,-78.1703,81.66,82,63,1.59,moderate rain
16,Medvedka,RU,2021-03-29 22:12:08,61.1629,46.387,28.74,92,20,7.72,few clouds
17,Ushuaia,AR,2021-03-29 22:07:36,-54.8,-68.3,51.8,66,20,4.61,few clouds
18,Banda Aceh,ID,2021-03-29 22:12:08,5.5577,95.3222,78.3,83,100,10.76,moderate rain
19,Bredasdorp,ZA,2021-03-29 22:12:09,-34.5322,20.0403,51.8,100,43,1.14,scattered clouds
20,Severo-Kurilsk,RU,2021-03-29 22:12:09,50.6789,156.125,35.56,96,100,20.92,moderate rain
21,Cape Town,ZA,2021-03-29 22:12:09,-33.9258,18.4232,64.0,72,0,4.61,clear sky
22,Victoria,HK,2021-03-29 22:08:52,22.2855,114.1577,78.01,86,25,6.89,scattered clouds
23,Karratha,AU,2021-03-29 22:12:10,-20.7377,116.8463,87.78,43,55,6.2,broken clouds
24,Talnakh,RU,2021-03-29 22:07:27,69.4865,88.3972,-24.84,99,27,2.21,scattered clouds
25,Atuona,PF,2021-03-29 22:12:10,-9.8,-139.0333,80.49,79,28,18.79,scattered clouds
26,Port-Gentil,GA,2021-03-29 22:12:11,-0.7193,8.7815,78.8,94,40,3.8,scattered clouds
27,Provideniya,RU,2021-03-29 22:12:11,64.3833,-173.3,21.2,73,90,8.95,overcast clouds
28,Broome,US,2021-03-29 22:12:12,42.2506,-75.833,45.0,45,1,12.66,clear sky
29,Vallenar,CL,2021-03-29 22:12:12,-28.5708,-70.7581,75.78,37,0,5.57,clear sky
30,Butaritari,KI,2021-03-29 22:12:12,3.0707,172.7902,81.3,79,24,14.09,few clouds
31,San Policarpo,PH,2021-03-29 22:12:13,12.1791,125.5072,79.95,81,100,10.33,overcast clouds
32,Busselton,AU,2021-03-29 22:12:13,-33.65,115.3333,66.0,94,13,1.01,few clouds
33,Olinda,BR,2021-03-29 22:12:11,-8.0089,-34.8553,80.6,74,75,6.91,broken clouds
34,Bandarbeyla,SO,2021-03-29 22:12:13,9.4942,50.8122,77.85,68,100,6.62,overcast clouds
35,Lebu,CL,2021-03-29 22:12:14,-37.6167,-73.65,59.68,82,8,2.8,clear sky
36,Qaanaaq,GL,2021-03-29 22:12:14,77.484,-69.3632,-14.21,68,44,7.54,scattered clouds
37,Kruisfontein,ZA,2021-03-29 22:12:15,-34.0033,24.7314,66.99,83,24,5.01,few clouds
38,Albany,US,2021-03-29 22:07:45,42.6001,-73.9662,44.01,34,2,3.0,clear sky
39,Clyde River,CA,2021-03-29 22:12:15,70.4692,-68.5914,-7.6,84,75,14.97,broken clouds
40,Chipinge,ZW,2021-03-29 22:12:15,-20.1883,32.6236,55.9,92,5,4.0,clear sky
41,Cockburn Town,TC,2021-03-29 22:08:10,21.4612,-71.1419,82.4,69,40,16.11,scattered clouds
42,Arraial Do Cabo,BR,2021-03-29 22:12:16,-22.9661,-42.0278,84.2,83,40,6.91,scattered clouds
43,Nikolskoye,RU,2021-03-29 22:12:16,59.7035,30.7861,43.0,70,90,8.95,moderate rain
44,Zhigansk,RU,2021-03-29 22:12:17,66.7697,123.3711,16.34,97,100,6.71,overcast clouds
45,Nanortalik,GL,2021-03-29 22:12:18,60.1432,-45.2371,27.43,56,66,3.87,broken clouds
46,Castro,BR,2021-03-29 22:12:18,-24.7911,-50.0119,63.93,93,72,5.32,broken clouds
47,Saint-Philippe,RE,2021-03-29 22:12:19,-21.3585,55.7679,77.0,78,0,6.91,clear sky
48,Thompson,CA,2021-03-29 22:12:19,55.7435,-97.8558,10.4,85,90,23.02,snow
49,Villamartin,ES,2021-03-29 22:12:19,36.8598,-5.6449,64.99,52,0,5.75,clear sky
50,Pisco,PE,2021-03-29 22:12:20,-13.7,-76.2167,73.4,64,0,21.85,clear sky
51,Hithadhoo,MV,2021-03-29 22:12:20,-0.6,73.0833,83.16,75,100,26.37,overcast clouds
52,Yellowknife,CA,2021-03-29 22:12:20,62.456,-114.3525,7.0,47,20,13.8,few clouds
53,Vilhena,BR,2021-03-29 22:12:21,-12.7406,-60.1458,75.2,88,20,1.14,moderate rain
54,Pontianak,ID,2021-03-29 22:12:00,-0.0333,109.3333,75.2,100,90,2.3,overcast clouds
55,Georgetown,MY,2021-03-29 22:12:21,5.4112,100.3354,80.6,94,40,3.44,scattered clouds
56,Vila Velha,BR,2021-03-29 22:12:22,-20.3297,-40.2925,80.6,74,0,4.61,clear sky
57,Geraldton,AU,2021-03-29 22:12:22,-28.7667,114.6,75.2,78,75,10.36,light rain
58,Mabaruma,GY,2021-03-29 22:12:23,8.2,-59.7833,75.63,91,98,5.7,overcast clouds
59,New Norfolk,AU,2021-03-29 22:12:23,-42.7826,147.0587,53.01,70,100,1.01,overcast clouds
60,Rochegda,RU,2021-03-29 22:12:23,62.8,43.25,34.27,90,95,9.73,overcast clouds
61,Kavieng,PG,2021-03-29 22:12:24,-2.5744,150.7967,83.8,73,99,13.89,overcast clouds
62,Saskylakh,RU,2021-03-29 22:12:12,71.9167,114.0833,-16.51,98,99,6.29,overcast clouds
63,Aguimes,ES,2021-03-29 22:12:24,27.9054,-15.4461,66.2,68,20,11.5,few clouds
64,Avarua,CK,2021-03-29 22:12:25,-21.2078,-159.775,84.2,74,40,12.66,light rain
65,Cardston,CA,2021-03-29 22:12:25,49.2,-113.3019,21.2,68,100,8.05,overcast clouds
66,Ranau,MY,2021-03-29 22:12:25,5.9538,116.6641,77.0,94,20,1.14,few clouds
67,Khani,GE,2021-03-29 22:12:26,41.9563,42.9566,39.2,81,0,5.75,clear sky
68,Isangel,VU,2021-03-29 22:12:26,-19.55,169.2667,80.6,83,20,9.28,few clouds
69,San Patricio,US,2021-03-29 22:12:26,28.017,-97.5169,71.6,72,90,12.66,overcast clouds
70,San Pedro,PH,2021-03-29 22:12:27,14.35,121.0167,80.6,69,20,4.61,few clouds
71,Port Augusta,AU,2021-03-29 22:12:27,-32.5,137.7667,60.01,94,0,4.61,clear sky
72,Hermanus,ZA,2021-03-29 22:12:28,-34.4187,19.2345,66.0,61,32,3.29,scattered clouds
73,Juneau,US,2021-03-29 22:12:09,58.3019,-134.4197,33.8,80,90,19.57,light snow
74,East London,ZA,2021-03-29 22:08:27,-33.0153,27.9116,69.12,86,99,17.49,light rain
75,Ilulissat,GL,2021-03-29 22:12:28,69.2167,-51.1,17.6,45,40,14.97,scattered clouds
76,Civitavecchia,IT,2021-03-29 22:12:29,42.0933,11.7967,52.0,93,8,2.3,fog
77,Antalaha,MG,2021-03-29 22:11:27,-14.9003,50.2788,76.01,91,92,3.58,light rain
78,Martapura,ID,2021-03-29 22:12:29,-3.4167,114.85,77.0,94,90,5.75,overcast clouds
79,Lata,PT,2021-03-29 22:12:30,40.1629,-8.3327,60.01,84,14,4.07,few clouds
80,Cabo San Lucas,MX,2021-03-29 22:09:23,22.8909,-109.9124,82.99,33,75,4.61,broken clouds
81,Dawei,MM,2021-03-29 22:12:30,14.0833,98.2,75.2,79,35,2.08,scattered clouds
82,Hilo,US,2021-03-29 22:12:31,19.7297,-155.09,75.2,73,75,3.44,light rain
83,Kinshasa,CD,2021-03-29 22:09:11,-4.3246,15.3215,75.2,88,40,9.22,moderate rain
84,Vaini,TO,2021-03-29 22:12:31,-21.2,-175.2,82.4,89,40,8.05,scattered clouds
85,Luderitz,NA,2021-03-29 22:12:32,-26.6481,15.1594,61.79,84,0,8.43,clear sky
86,Sorland,NO,2021-03-29 22:12:32,67.667,12.6934,41.59,85,100,20.8,overcast clouds
87,Corner Brook,CA,2021-03-29 22:12:32,48.9667,-57.9484,42.8,75,90,27.63,overcast clouds
88,Kahului,US,2021-03-29 22:12:19,20.8947,-156.47,82.4,57,40,9.22,scattered clouds
89,Perth,AU,2021-03-29 22:12:33,-31.9333,115.8333,72.0,88,36,5.75,scattered clouds
90,Kandrian,PG,2021-03-29 22:12:33,-6.2167,149.55,79.32,87,98,6.69,light rain
91,Henties Bay,NA,2021-03-29 22:12:34,-22.116,14.2845,62.01,90,0,1.99,clear sky
92,Agadir,MA,2021-03-29 22:12:05,30.4202,-9.5982,66.2,72,26,3.44,scattered clouds
93,Namibe,AO,2021-03-29 22:12:34,-15.1961,12.1522,74.44,82,88,1.83,light rain
94,Banon,ES,2021-03-29 22:12:34,40.8382,-1.1909,53.6,62,0,2.3,clear sky
95,Carutapera,BR,2021-03-29 22:12:35,-1.195,-46.02,76.19,93,97,5.91,overcast clouds
96,Iqaluit,CA,2021-03-29 22:12:35,63.7506,-68.5145,5.0,72,20,16.11,snow
97,Fare,PF,2021-03-29 22:12:36,-16.7,-151.0167,82.18,72,14,15.57,few clouds
98,Challans,FR,2021-03-29 22:12:36,46.8436,-1.8749,57.2,51,0,4.61,clear sky
99,Bodden Town,KY,2021-03-29 22:12:36,19.2833,-81.25,84.2,70,20,9.22,few clouds
100,Chuy,UY,2021-03-29 22:12:37,-33.6971,-53.4616,67.37,87,25,15.14,scattered clouds
101,Mahajanga,MG,2021-03-29 22:12:37,-15.7167,46.3167,80.6,94,20,4.61,few clouds
102,Tasiilaq,GL,2021-03-29 22:12:37,65.6145,-37.6368,19.4,58,0,7.45,clear sky
103,Torbay,CA,2021-03-29 22:12:38,47.6666,-52.7314,37.0,100,90,43.73,moderate rain
104,Pajapita,GT,2021-03-29 22:12:38,14.7167,-92.0333,89.6,70,40,6.91,scattered clouds
105,Mar Del Plata,AR,2021-03-29 22:11:31,-38.0023,-57.5575,63.0,77,20,6.91,few clouds
106,Bilibino,RU,2021-03-29 22:12:39,68.0546,166.4372,-7.01,97,99,2.62,overcast clouds
107,Kupang,ID,2021-03-29 22:12:39,-10.1667,123.5833,75.2,100,90,14.97,heavy intensity rain
108,Jamestown,US,2021-03-29 22:12:39,42.097,-79.2353,39.2,60,1,6.46,clear sky
109,Narsaq,GL,2021-03-29 22:12:40,60.9167,-46.05,24.8,42,75,4.61,broken clouds
110,Hasaki,JP,2021-03-29 22:12:40,35.7333,140.8333,57.2,88,75,6.91,mist
111,Cherskiy,RU,2021-03-29 22:12:40,68.75,161.3,-2.67,95,100,8.3,overcast clouds
112,Saint-Pierre,RE,2021-03-29 22:12:41,-21.3393,55.4781,77.0,78,0,6.91,clear sky
113,Tabas,IR,2021-03-29 22:12:41,33.5959,56.9244,55.45,27,0,6.49,clear sky
114,Bathsheba,BB,2021-03-29 22:12:41,13.2167,-59.5167,80.6,61,40,20.71,scattered clouds
115,Kampene,CD,2021-03-29 22:12:42,-3.6,26.6667,66.81,98,100,0.49,overcast clouds
116,Am Timan,TD,2021-03-29 22:12:42,11.0297,20.2827,82.9,14,0,7.81,clear sky
117,Portland,US,2021-03-29 22:08:06,45.5234,-122.6762,53.01,50,75,12.66,broken clouds
118,Madera,US,2021-03-29 22:12:43,37.1666,-119.8343,70.0,30,0,1.99,clear sky
119,Hay River,CA,2021-03-29 22:12:43,60.8156,-115.7999,3.2,55,98,13.8,overcast clouds
120,Flinders,AU,2021-03-29 22:12:43,-34.5833,150.8552,64.99,64,56,8.01,broken clouds
121,Santa Cruz,BO,2021-03-29 22:12:15,-17.8,-63.1667,77.0,60,60,13.8,broken clouds
122,Luau,AO,2021-03-29 22:12:44,-10.7073,22.2247,63.57,96,86,2.51,light rain
123,Port Huron,US,2021-03-29 22:12:44,42.9709,-82.4249,46.4,39,1,11.5,clear sky
124,Winnemucca,US,2021-03-29 22:12:45,40.973,-117.7357,50.0,9,1,13.8,clear sky
125,Port Alfred,ZA,2021-03-29 22:12:45,-33.5906,26.891,68.47,88,88,23.67,overcast clouds
126,Rudsar,IR,2021-03-29 22:12:07,37.1376,50.288,46.4,87,0,2.3,clear sky
127,Mitsamiouli,KM,2021-03-29 22:12:45,-11.3847,43.2844,82.9,68,19,7.56,few clouds
128,Saquisili,EC,2021-03-29 22:12:46,-0.8333,-78.6667,57.2,72,20,19.57,light rain
129,Honiara,SB,2021-03-29 22:12:46,-9.4333,159.95,83.86,72,23,2.82,few clouds
130,Hyderabad,IN,2021-03-29 22:12:00,17.3753,78.4744,79.0,64,40,4.61,haze
131,Vondrozo,MG,2021-03-29 22:12:47,-22.8167,47.2833,64.47,96,5,1.9,clear sky
132,Vestmannaeyjar,IS,2021-03-29 22:12:47,63.4427,-20.2734,33.73,64,99,5.99,overcast clouds
133,Norman Wells,CA,2021-03-29 22:12:48,65.282,-126.8329,10.4,48,75,11.5,broken clouds
134,Yangambi,CD,2021-03-29 22:12:48,0.8102,24.4336,69.28,89,100,2.73,overcast clouds
135,Krasnoselkup,RU,2021-03-29 22:12:48,65.7,82.4667,-10.1,91,95,7.96,overcast clouds
136,Tuktoyaktuk,CA,2021-03-29 22:12:49,69.4541,-133.0374,-11.2,77,20,16.11,snow
137,Buchanan,LR,2021-03-29 22:12:49,5.8808,-10.0467,82.4,83,75,3.87,light rain
138,Caravelas,BR,2021-03-29 22:12:49,-17.7125,-39.2481,78.57,72,0,8.1,clear sky
139,Rakiv Lis,UA,2021-03-29 22:12:50,51.6217,24.9243,44.76,88,100,5.59,overcast clouds
140,La Ronge,CA,2021-03-29 22:12:50,55.1001,-105.2842,17.6,79,100,16.11,light snow
141,Guider,CM,2021-03-29 22:12:50,9.9342,13.9486,84.7,13,2,8.08,clear sky
142,Ternate,ID,2021-03-29 22:12:51,0.8,127.4,75.6,92,100,12.39,overcast clouds
143,Mahebourg,MU,2021-03-29 22:12:51,-20.4081,57.7,75.2,88,20,6.91,few clouds
144,Lakes Entrance,AU,2021-03-29 22:12:52,-37.8811,147.981,57.0,74,84,7.9,broken clouds
145,Mbuji-Mayi,CD,2021-03-29 22:12:52,-6.15,23.6,68.88,95,95,1.28,overcast clouds
146,Silleda,ES,2021-03-29 22:12:52,42.696,-8.2465,62.6,51,0,3.44,clear sky
147,Beidao,CN,2021-03-29 22:12:53,34.5686,105.8933,52.92,67,2,3.65,clear sky
148,Carnarvon,AU,2021-03-29 22:12:53,-24.8667,113.6333,77.0,88,76,8.05,broken clouds
149,Los Llanos De Aridane,ES,2021-03-29 22:12:54,28.6585,-17.9182,64.4,68,0,4.61,clear sky
150,Sola,VU,2021-03-29 22:12:54,-13.8833,167.55,84.2,84,75,5.75,broken clouds
151,Tiksi,RU,2021-03-29 22:12:55,71.6872,128.8694,4.51,98,100,4.38,overcast clouds
152,Yinchuan,CN,2021-03-29 22:12:55,38.4681,106.2731,50.32,38,52,7.25,broken clouds
153,Dandong,CN,2021-03-29 22:12:55,40.1292,124.3947,40.14,42,0,2.51,clear sky
154,Alofi,NU,2021-03-29 22:12:56,-19.0595,-169.9187,84.2,79,11,13.8,few clouds
155,Kununurra,AU,2021-03-29 22:11:46,-15.7667,128.7333,75.2,73,77,1.14,broken clouds
156,Inirida,CO,2021-03-29 22:12:57,3.8653,-67.9239,79.38,90,94,0.89,heavy intensity rain
157,Lavrentiya,RU,2021-03-29 22:12:16,65.5833,-171.0,13.95,88,99,12.08,overcast clouds
158,Shelburne,CA,2021-03-29 22:12:57,44.0787,-80.2041,42.01,61,20,3.0,few clouds
159,Dickinson,US,2021-03-29 22:12:58,29.4608,-95.0513,70.0,28,1,10.36,clear sky
160,Nuuk,GL,2021-03-29 22:12:58,64.1835,-51.7216,30.2,51,75,16.11,snow
161,Saldanha,ZA,2021-03-29 22:12:58,-33.0117,17.9442,64.4,88,0,2.3,clear sky
162,Khandbari,NP,2021-03-29 22:12:59,27.3747,87.2039,64.72,29,83,4.59,broken clouds
163,Kudahuvadhoo,MV,2021-03-29 22:12:59,2.6708,72.8944,82.8,73,100,25.1,overcast clouds
164,Airai,TL,2021-03-29 22:12:59,-8.9266,125.4092,59.56,98,100,4.43,overcast clouds
165,Wanning,CN,2021-03-29 22:13:00,18.8003,110.3967,73.65,95,15,11.79,few clouds
166,Hami,CN,2021-03-29 22:13:00,42.8,93.45,53.19,31,100,17.6,overcast clouds
167,Kaeo,NZ,2021-03-29 22:13:01,-35.1,173.7833,69.01,96,90,8.99,overcast clouds
168,Vila Franca Do Campo,PT,2021-03-29 22:13:01,37.7167,-25.4333,60.8,88,40,12.66,scattered clouds
169,Erzin,TR,2021-03-29 22:13:01,36.9559,36.2,54.0,64,0,2.98,clear sky
170,Vanimo,PG,2021-03-29 22:13:02,-2.6741,141.3028,78.75,85,100,1.66,overcast clouds
171,Massakory,TD,2021-03-29 22:13:02,12.996,15.7293,78.64,7,0,18.63,clear sky
172,Calvinia,ZA,2021-03-29 22:13:03,-31.4707,19.776,68.34,37,0,2.91,clear sky
173,Benjamin Constant,BR,2021-03-29 22:13:03,-4.3831,-70.0311,86.0,94,75,8.05,broken clouds
174,Sterling,US,2021-03-29 22:09:25,39.0062,-77.4286,59.0,23,1,12.66,clear sky
175,Bagotville,AU,2021-03-29 22:13:03,-28.9833,153.4167,66.2,94,75,4.61,broken clouds
176,Dikson,RU,2021-03-29 22:13:04,73.5069,80.5464,-27.89,100,37,7.7,scattered clouds
177,Margate,GB,2021-03-29 22:13:04,51.3813,1.3862,50.0,54,15,1.99,few clouds
178,Salima,MW,2021-03-29 22:13:05,-13.7804,34.4587,70.12,79,38,8.84,scattered clouds
179,Harper,LR,2021-03-29 22:13:05,4.375,-7.7169,78.8,86,19,5.3,few clouds
180,Fez,MA,2021-03-29 22:13:05,34.0372,-4.9998,64.4,55,40,6.91,scattered clouds
181,Sao Joao Da Barra,BR,2021-03-29 22:08:48,-21.6403,-41.0511,84.2,65,40,11.5,scattered clouds
182,Ambanja,MG,2021-03-29 22:13:06,-13.6833,48.45,74.8,94,92,3.44,moderate rain
183,Tabou,CI,2021-03-29 22:13:06,4.423,-7.3528,79.23,85,20,5.08,few clouds
184,Kaitangata,NZ,2021-03-29 22:13:07,-46.2817,169.8464,61.0,80,100,5.01,overcast clouds
185,Dingle,PH,2021-03-29 22:13:07,10.9995,122.6711,74.97,93,63,6.98,broken clouds
186,Canaries,ES,2021-03-29 22:13:07,28.0,-15.5,66.2,68,20,12.66,few clouds
187,Khatanga,RU,2021-03-29 22:13:08,71.9667,102.5,-25.47,97,27,11.74,scattered clouds
188,Houma,US,2021-03-29 22:13:08,29.5958,-90.7195,73.0,60,1,9.22,clear sky
189,Carndonagh,IE,2021-03-29 22:13:09,55.25,-7.2667,53.92,79,5,17.36,clear sky
190,Tirano,IT,2021-03-29 22:13:09,46.2154,10.1679,55.0,50,70,6.67,broken clouds
191,Meadow Lake,US,2021-03-29 22:13:09,34.8014,-106.5436,77.0,13,40,12.66,scattered clouds
192,Katherine,AU,2021-03-29 22:13:10,-14.4667,132.2667,71.6,94,92,8.05,overcast clouds
193,Ancud,CL,2021-03-29 22:13:10,-41.8697,-73.8203,61.0,78,73,4.0,broken clouds
194,Sakakah,SA,2021-03-29 22:13:10,29.9697,40.2064,59.0,17,0,8.05,clear sky
195,Son La,VN,2021-03-29 22:13:11,21.3167,103.9,73.42,43,76,2.04,broken clouds
196,Kirakira,SB,2021-03-29 22:13:11,-10.4544,161.9205,84.11,75,68,6.02,broken clouds
197,Severnyy-Kospashskiy,RU,2021-03-29 22:13:12,59.0925,57.8008,29.93,99,100,2.55,overcast clouds
198,Klaksvik,FO,2021-03-29 22:13:12,62.2266,-6.589,39.2,75,75,2.3,broken clouds
199,Tripoli,LY,2021-03-29 22:12:41,32.8752,13.1875,61.61,65,0,11.83,clear sky
200,Port Elizabeth,ZA,2021-03-29 22:13:12,-33.918,25.5701,66.2,88,20,13.8,few clouds
201,Araouane,ML,2021-03-29 22:13:13,18.9048,-3.5265,78.06,8,11,9.53,few clouds
202,Husavik,IS,2021-03-29 22:13:13,66.0449,-17.3389,26.6,80,90,6.91,light snow
203,Waingapu,ID,2021-03-29 22:13:14,-9.6567,120.2641,77.5,91,100,9.04,heavy intensity rain
204,Sakyla,FI,2021-03-29 22:13:14,61.0333,22.3333,42.8,93,75,11.5,broken clouds
205,Aklavik,CA,2021-03-29 22:13:14,68.2191,-135.0107,-0.4,60,75,6.91,broken clouds
206,Keti Bandar,PK,2021-03-29 22:13:15,24.1447,67.4497,78.42,81,50,14.23,scattered clouds
207,Ust-Nera,RU,2021-03-29 22:13:15,64.5667,143.2,-0.63,96,100,5.7,overcast clouds
208,La Rioja,ES,2021-03-29 22:13:15,42.25,-2.5,60.8,44,0,11.5,clear sky
209,Igrim,RU,2021-03-29 22:13:16,63.1906,64.4162,20.75,92,100,8.32,overcast clouds
210,Christchurch,NZ,2021-03-29 22:09:29,-43.5333,172.6333,64.0,77,90,3.44,overcast clouds
211,Ostrovnoy,RU,2021-03-29 22:13:16,68.0531,39.5131,34.7,96,100,23.11,overcast clouds
212,Usolye,RU,2021-03-29 22:13:17,59.4268,56.6808,30.94,99,100,2.95,overcast clouds
213,Wynyard,AU,2021-03-29 22:13:17,-41.0,145.7167,52.59,67,84,5.26,broken clouds
214,Sitrah,BH,2021-03-29 22:13:18,26.1547,50.6206,69.8,56,0,16.11,clear sky
215,Ahipara,NZ,2021-03-29 22:13:18,-35.1667,173.1667,70.3,87,31,7.52,moderate rain
216,Saint George,US,2021-03-29 22:13:04,37.1041,-113.5841,78.01,9,1,18.41,clear sky
217,Laguna,US,2021-03-29 22:13:18,38.421,-121.4238,75.0,23,1,12.66,clear sky
218,Pedro Juan Caballero,PY,2021-03-29 22:13:19,-22.5472,-55.7333,78.8,65,20,4.61,few clouds
219,Yabelo,ET,2021-03-29 22:13:19,4.8833,38.0833,63.39,58,6,10.27,clear sky
220,Kroya,ID,2021-03-29 22:13:19,-7.6331,109.2461,77.81,88,81,2.08,light rain
221,Mackay,AU,2021-03-29 22:13:20,-21.15,149.2,75.99,78,39,13.8,scattered clouds
222,La Asuncion,VE,2021-03-29 22:13:20,11.0333,-63.8628,77.76,81,68,17.58,broken clouds
223,Acapulco,MX,2021-03-29 22:13:21,16.8634,-99.8901,86.0,66,40,10.36,scattered clouds
224,Esperantina,BR,2021-03-29 22:13:21,-3.9017,-42.2336,75.06,94,100,4.16,heavy intensity rain
225,Rocha,UY,2021-03-29 22:13:21,-34.4833,-54.3333,65.62,90,70,12.46,broken clouds
226,Berlevag,NO,2021-03-29 22:13:22,70.8578,29.0864,32.0,80,0,13.8,clear sky
227,Cidreira,BR,2021-03-29 22:13:22,-30.1811,-50.2056,71.37,64,2,9.24,clear sky
228,Shwebo,MM,2021-03-29 22:13:23,22.5667,95.7,76.62,27,0,6.13,clear sky
229,Longview,US,2021-03-29 22:13:24,32.5007,-94.7405,73.99,28,1,10.36,clear sky
230,Carazinho,BR,2021-03-29 22:13:24,-28.2839,-52.7864,61.74,75,9,7.87,clear sky
231,Honningsvag,NO,2021-03-29 22:13:25,70.9821,25.9704,35.28,78,24,14.25,few clouds
232,Conceicao Da Barra,BR,2021-03-29 22:13:25,-18.5933,-39.7322,78.66,75,0,8.61,clear sky
233,Klimkovice,CZ,2021-03-29 22:13:25,49.7881,18.1259,48.2,93,90,6.91,overcast clouds
234,Umm Lajj,SA,2021-03-29 22:13:26,25.0213,37.2685,71.87,62,48,12.39,scattered clouds
235,Kijang,KR,2021-03-29 22:13:26,35.2442,129.2139,53.6,40,99,6.91,overcast clouds
236,Vila,PT,2021-03-29 22:13:26,42.0304,-8.1588,53.01,82,79,4.41,broken clouds
237,Aleksandrov Gay,RU,2021-03-29 22:13:27,50.147,48.5704,32.54,93,100,10.04,overcast clouds
238,Luban,PL,2021-03-29 22:13:27,51.1201,15.2877,52.0,62,93,3.0,overcast clouds
239,Mayumba,GA,2021-03-29 22:13:27,-3.432,10.6554,78.24,86,94,3.67,overcast clouds
240,Brylivka,UA,2021-03-29 22:13:28,46.4248,33.1472,39.33,91,73,9.6,broken clouds
241,Sao Filipe,CV,2021-03-29 22:13:29,14.8961,-24.4956,69.53,74,69,12.3,broken clouds
242,Verkhoyansk,RU,2021-03-29 22:13:29,67.5447,133.385,-8.72,99,98,2.28,overcast clouds
243,Zhezkazgan,KZ,2021-03-29 22:13:29,47.8043,67.7144,23.31,81,100,5.37,overcast clouds
244,Ishigaki,JP,2021-03-29 22:13:30,24.3448,124.1572,75.2,100,75,9.22,broken clouds
245,Port Macquarie,AU,2021-03-29 22:13:30,-31.4333,152.9167,64.99,94,75,8.05,broken clouds
246,Merrill,US,2021-03-29 22:13:30,45.1805,-89.6835,64.4,36,1,20.71,clear sky
247,Petropavlovsk-Kamchatskiy,RU,2021-03-29 22:13:31,53.0452,158.6483,30.2,55,100,4.5,overcast clouds
248,Coquimbo,CL,2021-03-29 22:13:31,-29.9533,-71.3436,62.6,72,20,11.5,few clouds
249,Egvekinot,RU,2021-03-29 22:13:32,66.3167,-179.1667,6.84,77,100,15.66,overcast clouds
250,Marondera,ZW,2021-03-29 22:13:32,-18.1853,31.5519,51.1,91,2,6.4,clear sky
251,Souillac,MU,2021-03-29 22:13:32,-20.5167,57.5167,75.2,88,20,6.91,few clouds
252,Mingguang,CN,2021-03-29 22:13:33,32.7802,117.9638,51.35,57,73,10.98,broken clouds
253,Lorengau,PG,2021-03-29 22:13:33,-2.0226,147.2712,81.63,81,99,4.94,overcast clouds
254,Trelew,AR,2021-03-29 22:13:14,-43.249,-65.3051,70.11,41,5,17.29,clear sky
255,Faanui,PF,2021-03-29 22:13:34,-16.4833,-151.75,82.44,71,51,15.84,light rain
256,Matara,LK,2021-03-29 22:13:34,5.9485,80.5353,72.91,91,100,9.33,overcast clouds
257,Mount Pleasant,US,2021-03-29 22:13:34,32.7941,-79.8626,63.0,44,1,11.61,clear sky
258,Huarmey,PE,2021-03-29 22:13:35,-10.0681,-78.1522,73.53,76,64,9.86,broken clouds
259,Sobolevo,RU,2021-03-29 22:13:35,54.4299,31.8996,35.42,99,100,8.01,overcast clouds
260,San Cristobal,VE,2021-03-29 22:13:36,7.7669,-72.225,82.4,65,75,3.44,broken clouds
261,Manacapuru,BR,2021-03-29 22:13:36,-3.2997,-60.6206,78.8,89,75,3.44,moderate rain
262,Leningradskiy,RU,2021-03-29 22:13:36,69.3833,178.4167,-1.01,92,100,14.81,overcast clouds
263,Haines Junction,CA,2021-03-29 22:13:37,60.7522,-137.5108,32.0,34,93,3.44,overcast clouds
264,Hambantota,LK,2021-03-29 22:13:37,6.1241,81.1185,75.76,86,100,15.3,overcast clouds
265,Price,US,2021-03-29 22:13:37,39.5994,-110.8107,60.8,18,1,23.02,clear sky
266,El Cope,PA,2021-03-29 22:13:38,8.6167,-80.6,87.8,62,40,4.61,scattered clouds
267,Kuytun,RU,2021-03-29 22:13:38,54.3419,101.5036,31.08,99,100,2.13,light snow
268,Longyearbyen,SJ,2021-03-29 22:13:38,78.2186,15.6401,26.6,74,75,26.46,broken clouds
269,Awbari,LY,2021-03-29 22:13:39,26.5921,12.7805,61.27,20,61,7.99,broken clouds
270,Aktau,KZ,2021-03-29 22:13:39,43.65,51.2,32.0,100,40,4.47,fog
271,Eureka,US,2021-03-29 22:10:08,40.8021,-124.1637,60.01,56,6,10.0,clear sky
272,Salinopolis,BR,2021-03-29 22:10:58,-0.6136,-47.3561,78.03,88,99,9.33,overcast clouds
273,Labrea,BR,2021-03-29 22:13:40,-7.2586,-64.7981,77.04,94,78,0.89,broken clouds
274,Tura,IN,2021-03-29 22:13:40,25.5198,90.2201,70.9,55,35,6.76,scattered clouds
275,Kirkland Lake,CA,2021-03-29 22:13:41,48.1446,-80.0377,30.2,59,82,5.75,broken clouds
276,Moindou,NC,2021-03-29 22:13:41,-21.6924,165.677,80.6,65,0,4.61,clear sky
277,Upernavik,GL,2021-03-29 22:11:15,72.7868,-56.1549,-5.08,77,98,7.27,overcast clouds
278,Barrow,US,2021-03-29 22:09:07,71.2906,-156.7887,-2.2,65,1,25.32,snow
279,Boca Do Acre,BR,2021-03-29 22:13:41,-8.7522,-67.3978,80.13,78,91,1.66,overcast clouds
280,Barabinsk,RU,2021-03-29 22:13:42,55.3571,78.357,22.42,94,100,13.11,light snow
281,Beisfjord,NO,2021-03-29 22:13:42,68.3751,17.5988,37.4,87,75,5.75,light rain
282,Zhoucheng,CN,2021-03-29 22:13:43,35.9122,116.3117,47.23,42,0,3.6,clear sky
283,Goderich,CA,2021-03-29 22:13:43,43.7501,-81.7165,42.8,56,10,9.22,clear sky
284,Te Anau,NZ,2021-03-29 22:13:43,-45.4167,167.7167,55.62,76,96,0.81,overcast clouds
285,Esperance,AU,2021-03-29 22:13:44,-33.8667,121.9,82.4,24,91,19.57,overcast clouds
286,Santa Rosa,PH,2021-03-29 22:12:07,14.3122,121.1114,80.6,69,20,4.61,few clouds
287,Guerrero Negro,MX,2021-03-29 22:13:44,27.9769,-114.0611,77.76,30,99,13.38,overcast clouds
288,Atambua,ID,2021-03-29 22:13:44,-9.1061,124.8925,71.89,91,100,5.35,overcast clouds
289,Auki,SB,2021-03-29 22:13:45,-8.7676,160.7034,83.53,69,32,2.21,scattered clouds
290,San Carlos De Bariloche,AR,2021-03-29 22:12:31,-41.1456,-71.3082,77.0,7,0,10.36,clear sky
291,Lompoc,US,2021-03-29 22:13:45,34.6391,-120.4579,63.0,77,1,20.71,clear sky
292,Dukat,RU,2021-03-29 22:13:46,62.55,155.55,4.35,76,56,3.11,broken clouds
293,Roma,US,2021-03-29 22:09:40,43.2128,-75.4557,39.99,41,1,17.27,clear sky
294,Sangin,AF,2021-03-29 22:13:46,32.0728,64.8359,58.3,19,0,7.85,clear sky
295,Kodiak,US,2021-03-29 22:13:46,57.79,-152.4072,48.2,57,75,10.36,broken clouds
296,Cheyenne,US,2021-03-29 22:13:05,41.14,-104.8203,60.8,17,1,36.82,clear sky
297,Zhob,PK,2021-03-29 22:13:47,31.3411,69.4481,59.9,14,0,17.36,clear sky
298,Manali,IN,2021-03-29 22:13:47,13.1667,80.2667,80.6,78,20,3.44,mist
299,Lagoa,PT,2021-03-29 22:13:48,39.05,-27.9833,59.18,81,100,12.5,overcast clouds
300,Bonthe,SL,2021-03-29 22:13:48,7.5264,-12.505,79.39,85,87,6.93,overcast clouds
301,Shirpur,IN,2021-03-29 22:13:48,21.35,74.8833,82.78,29,8,16.28,clear sky
302,Bruck An Der Mur,AT,2021-03-29 22:13:49,47.4036,15.2952,54.0,48,82,3.62,broken clouds
303,Pevek,RU,2021-03-29 22:13:49,69.7008,170.3133,-9.29,97,100,4.43,overcast clouds
304,Havoysund,NO,2021-03-29 22:13:50,70.9963,24.6622,35.6,80,40,8.05,scattered clouds
305,Brae,GB,2021-03-29 22:13:50,60.3964,-1.353,42.8,100,90,3.44,overcast clouds
306,Sapouy,BF,2021-03-29 22:13:50,11.5544,-1.7736,80.51,16,5,6.55,clear sky
307,Altamont,US,2021-03-29 22:13:51,42.2068,-121.7372,48.0,23,1,14.97,clear sky
308,Dombarovskiy,RU,2021-03-29 22:13:51,50.7587,59.5386,3.49,92,19,3.62,few clouds
309,Ribeira Grande,PT,2021-03-29 22:13:51,38.5167,-28.7,59.65,80,100,12.75,overcast clouds
310,Peniche,PT,2021-03-29 22:13:52,39.3558,-9.3811,61.0,76,22,6.76,few clouds
311,Zaltan,LY,2021-03-29 22:11:28,32.947,11.8665,61.0,73,0,8.57,clear sky
312,Grand Gaube,MU,2021-03-29 22:13:52,-20.0064,57.6608,75.99,82,18,5.77,few clouds
313,Zykovo,RU,2021-03-29 22:13:53,55.9519,93.1461,30.2,59,40,17.9,light snow
314,Pucallpa,PE,2021-03-29 22:13:53,-8.3791,-74.5539,78.8,83,75,1.14,broken clouds
315,Simpang,ID,2021-03-29 22:13:53,-1.2667,104.0833,73.22,95,97,2.33,overcast clouds
316,Baykit,RU,2021-03-29 22:13:54,61.67,96.37,2.14,99,74,2.08,broken clouds
317,Nishihara,JP,2021-03-29 22:13:54,26.1842,127.7558,71.6,94,90,10.36,mist
318,Goundam,ML,2021-03-29 22:13:54,16.4145,-3.6708,78.67,10,4,8.48,clear sky
319,Yeniseysk,RU,2021-03-29 22:13:55,58.4497,92.1703,24.76,96,100,3.02,light snow
320,Sarlat-La-Caneda,FR,2021-03-29 22:13:55,44.889,1.2166,48.0,77,0,4.14,clear sky
321,Camabatela,AO,2021-03-29 22:13:55,-8.1881,15.375,62.85,98,54,3.02,broken clouds
322,Sawakin,SD,2021-03-29 22:13:56,19.1059,37.3321,74.34,75,1,8.88,clear sky
323,Kasempa,ZM,2021-03-29 22:13:56,-13.4584,25.8338,60.69,95,5,6.33,clear sky
324,Pangody,RU,2021-03-29 22:13:56,65.85,74.4859,3.87,95,100,7.49,light snow
325,Diu,IN,2021-03-29 22:13:57,20.7141,70.9822,75.36,74,7,13.96,clear sky
326,Sisimiut,GL,2021-03-29 22:13:57,66.9395,-53.6735,17.33,58,100,15.08,overcast clouds
327,Chokurdakh,RU,2021-03-29 22:13:58,70.6333,147.9167,-4.67,99,97,5.73,overcast clouds
328,Constitucion,CL,2021-03-29 22:13:58,-35.3333,-72.4167,59.67,77,37,4.14,scattered clouds
329,Qaqortoq,GL,2021-03-29 22:13:58,60.7167,-46.0333,24.8,42,75,4.61,broken clouds
330,High Rock,BS,2021-03-29 22:13:59,26.6208,-78.2833,80.6,65,75,3.44,broken clouds
331,Nouadhibou,MR,2021-03-29 22:11:13,20.931,-17.0347,64.4,88,25,17.27,scattered clouds
332,Thaba Nchu,ZA,2021-03-29 22:13:59,-29.2093,26.839,57.2,88,33,5.75,scattered clouds
333,Ambilobe,MG,2021-03-29 22:13:59,-13.2,49.05,74.46,95,95,2.13,light rain
334,Nizwa,OM,2021-03-29 22:14:00,22.9333,57.5333,80.26,20,37,4.56,scattered clouds
335,Hoquiam,US,2021-03-29 22:14:00,46.9809,-123.8893,51.01,53,1,21.85,clear sky
336,Camacha,PT,2021-03-29 22:14:00,33.0833,-16.3333,62.6,82,40,14.97,scattered clouds
337,Nara,JP,2021-03-29 22:14:01,34.6851,135.8049,55.0,93,40,3.44,mist
338,Ajaccio,FR,2021-03-29 22:14:01,42.0,8.9167,50.0,87,0,6.91,clear sky
339,Tateyama,JP,2021-03-29 22:14:01,34.9833,139.8667,60.01,100,75,4.61,mist
340,Acarau,BR,2021-03-29 22:14:02,-2.8856,-40.12,78.76,82,56,7.87,broken clouds
341,Ucluelet,CA,2021-03-29 22:13:30,48.9329,-125.5528,51.01,57,1,21.85,clear sky
342,Dakar,SN,2021-03-29 22:14:02,14.6937,-17.4441,66.2,88,0,11.5,clear sky
343,Dodoma,TZ,2021-03-29 22:14:03,-6.1722,35.7395,69.8,83,40,17.27,scattered clouds
344,Dongsheng,CN,2021-03-29 22:14:03,39.8161,109.9776,41.7,37,100,4.45,overcast clouds
345,Tulun,RU,2021-03-29 22:14:03,54.5611,100.5792,32.09,99,100,3.49,snow
346,Monrovia,LR,2021-03-29 22:14:04,6.3005,-10.7969,82.4,83,75,5.99,broken clouds
347,Gisborne,NZ,2021-03-29 22:14:04,-38.6533,178.0042,68.0,84,98,3.0,moderate rain
348,Santa Isabel Do Rio Negro,BR,2021-03-29 22:14:04,-0.4139,-65.0192,77.61,94,43,2.68,heavy intensity rain
349,Voh,NC,2021-03-29 22:14:05,-20.9667,164.7,82.54,65,100,4.79,overcast clouds
350,Kayerkan,RU,2021-03-29 22:14:05,69.3497,87.7602,-22.0,98,94,8.99,overcast clouds
351,Salalah,OM,2021-03-29 22:14:07,17.0151,54.0924,80.6,39,0,2.3,clear sky
352,Kamsack,CA,2021-03-29 22:14:08,51.5667,-101.9009,41.0,81,90,13.8,moderate rain
353,Codrington,AU,2021-03-29 22:14:09,-38.2667,141.9667,55.47,77,91,3.87,overcast clouds
354,Katsuura,JP,2021-03-29 22:14:10,35.1333,140.3,60.01,100,75,4.61,mist
355,Nemuro,JP,2021-03-29 22:14:10,43.3236,145.575,39.27,86,60,18.34,broken clouds
356,Bereda,ES,2021-03-29 22:14:10,43.2686,-7.5406,55.99,78,99,0.96,overcast clouds
357,Hofn,IS,2021-03-29 22:14:11,64.2539,-15.2082,29.53,62,0,17.16,clear sky
358,Biryusinsk,RU,2021-03-29 22:14:11,55.9634,97.8235,32.81,95,100,11.88,light snow
359,Sinnamary,GF,2021-03-29 22:14:12,5.3833,-52.95,77.65,86,90,14.47,overcast clouds
360,Kokstad,ZA,2021-03-29 22:14:12,-30.5472,29.4241,55.53,92,85,2.19,overcast clouds
361,Deputatskiy,RU,2021-03-29 22:14:12,69.3,139.9,-5.06,98,84,3.0,broken clouds
362,Fort Nelson,CA,2021-03-29 22:14:13,58.8053,-122.7002,15.8,57,20,4.61,few clouds
363,Gorontalo,ID,2021-03-29 22:14:13,0.5412,123.0595,75.87,93,97,2.64,overcast clouds
364,Olafsvik,IS,2021-03-29 22:14:13,64.8945,-23.7142,29.37,67,100,14.36,overcast clouds
365,Avera,US,2021-03-29 22:14:14,33.194,-82.5271,69.8,32,1,8.05,clear sky
366,Tignere,CM,2021-03-29 22:14:14,7.3667,12.65,72.81,26,7,2.48,clear sky
367,Xuddur,SO,2021-03-29 22:14:14,4.1213,43.8894,76.26,71,34,16.67,scattered clouds
368,Plouzane,FR,2021-03-29 22:14:15,48.3833,-4.6167,59.0,58,0,4.61,clear sky
369,Bengkulu,ID,2021-03-29 22:14:15,-3.8004,102.2655,75.34,89,79,2.89,light rain
370,Chicla,PE,2021-03-29 22:14:15,-11.705,-76.2686,46.54,88,100,2.8,moderate rain
371,Roald,NO,2021-03-29 22:14:16,62.5833,6.1333,46.4,61,90,26.46,overcast clouds
372,Port Shepstone,ZA,2021-03-29 22:14:16,-30.7414,30.455,70.63,83,100,13.29,light rain
373,Pochutla,MX,2021-03-29 22:14:17,15.7432,-96.4661,91.99,45,1,6.91,clear sky
374,Samarai,PG,2021-03-29 22:14:17,-10.6167,150.6667,83.73,74,100,11.39,overcast clouds
375,Gao,ML,2021-03-29 22:14:17,16.6362,1.637,75.88,10,0,11.41,clear sky
376,Kharan,PK,2021-03-29 22:14:18,28.5833,65.4167,68.47,16,18,8.9,few clouds
377,Yangjiang,CN,2021-03-29 22:14:18,21.85,111.9667,73.17,96,35,4.43,scattered clouds
378,Boguchany,RU,2021-03-29 22:14:18,58.3814,97.4531,26.11,98,100,3.78,light snow
379,Touros,BR,2021-03-29 22:14:19,-5.1989,-35.4608,82.4,78,40,10.36,scattered clouds
380,Tak,TH,2021-03-29 22:14:19,16.5833,98.8333,67.95,63,60,2.91,broken clouds
381,Novoye Devyatkino,RU,2021-03-29 22:14:19,60.0727,30.4784,43.0,70,90,8.95,moderate rain
382,Buin,CL,2021-03-29 22:14:20,-33.7333,-70.75,73.0,46,0,5.75,clear sky
383,Nova Olimpia,BR,2021-03-29 22:14:20,-14.7972,-57.2881,79.47,71,21,3.29,few clouds
384,Carballo,ES,2021-03-29 22:14:20,43.213,-8.691,59.0,67,0,2.3,clear sky
385,Wasilla,US,2021-03-29 22:10:51,61.5814,-149.4394,36.0,80,90,3.44,snow
386,Lao Cai,VN,2021-03-29 22:11:04,22.4833,103.95,74.34,62,27,1.68,scattered clouds
387,Den Helder,NL,2021-03-29 22:14:21,52.9599,4.7593,48.2,76,8,12.66,clear sky
388,Pictou,CA,2021-03-29 22:14:21,45.6834,-62.7153,42.8,75,90,16.11,overcast clouds
389,Aksay,RU,2021-03-29 22:14:22,47.26,39.87,39.99,87,40,6.71,light rain
390,Shu,KZ,2021-03-29 22:14:22,43.5983,73.7614,43.0,32,100,5.99,overcast clouds
391,Albufeira,PT,2021-03-29 22:14:22,37.0882,-8.2503,62.6,88,20,14.97,few clouds
392,Gondanglegi,ID,2021-03-29 22:14:23,-7.7479,112.0132,75.09,93,100,3.27,overcast clouds
393,Prachuap Khiri Khan,TH,2021-03-29 22:13:15,12.2167,99.75,71.87,87,60,3.78,broken clouds
394,Tilichiki,RU,2021-03-29 22:14:23,60.4667,166.1,1.87,86,18,4.79,few clouds
395,Yar-Sale,RU,2021-03-29 22:14:24,66.8333,70.8333,10.42,95,100,7.0,light snow
396,Kavaratti,IN,2021-03-29 22:14:24,10.5669,72.642,82.13,75,100,13.2,overcast clouds
397,Tagusao,PH,2021-03-29 22:14:24,9.1924,117.8141,79.23,84,60,3.69,broken clouds
398,Japura,ID,2021-03-29 22:14:25,-0.3167,102.35,72.79,98,58,2.42,broken clouds
399,Vagur,FO,2021-03-29 22:14:25,61.4732,-6.8119,43.39,69,100,9.28,overcast clouds
400,Sitka,US,2021-03-29 22:09:59,57.0531,-135.33,37.4,93,90,5.75,moderate rain
401,Khasan,RU,2021-03-29 22:14:26,42.4308,130.6434,41.76,64,9,6.22,clear sky
402,Methoni,GR,2021-03-29 22:14:26,36.8197,21.7049,59.0,82,96,2.3,overcast clouds
403,Mount Isa,AU,2021-03-29 22:14:26,-20.7333,139.5,77.0,33,0,9.22,clear sky
404,Bukama,CD,2021-03-29 22:14:27,-9.2,25.85,66.87,94,50,2.48,scattered clouds
405,Jacksonville,US,2021-03-29 22:14:27,30.3322,-81.6556,69.8,60,75,10.36,broken clouds
406,Kautokeino,NO,2021-03-29 22:14:27,69.0125,23.0412,28.08,96,100,9.06,light snow
407,Mahuva,IN,2021-03-29 22:14:28,21.0914,71.7622,78.78,43,7,9.24,clear sky
408,Milkovo,RU,2021-03-29 22:14:28,54.7167,158.6167,22.69,72,100,2.93,overcast clouds
409,Basco,PH,2021-03-29 22:14:28,20.4487,121.9702,80.73,78,81,11.03,broken clouds
410,Aykhal,RU,2021-03-29 22:14:29,66.0,111.5,15.17,96,100,4.45,light snow
411,Kiunga,PG,2021-03-29 22:14:29,-6.1219,141.2906,74.25,99,99,1.54,overcast clouds
412,Cayenne,GF,2021-03-29 22:12:13,4.9333,-52.3333,81.0,89,75,9.22,broken clouds
413,Nantucket,US,2021-03-29 22:14:30,41.2835,-70.0995,50.0,43,1,14.97,clear sky
414,Coihaique,CL,2021-03-29 22:14:30,-45.5752,-72.0662,69.8,56,0,9.22,clear sky
415,Komsomolskiy,UZ,2021-03-29 22:14:30,40.4272,71.7189,41.0,75,61,2.3,broken clouds
416,Corpus Christi,US,2021-03-29 22:12:50,27.8006,-97.3964,68.0,72,90,12.66,overcast clouds
417,Popova,RU,2021-03-29 22:14:31,42.9603,131.7228,37.4,81,7,9.82,clear sky
418,Kharitonovo,RU,2021-03-29 22:14:31,61.4009,47.4978,28.6,94,17,7.23,few clouds
419,Birjand,IR,2021-03-29 22:14:31,32.8663,59.2211,42.8,26,0,9.22,clear sky
420,Nabire,ID,2021-03-29 22:14:32,-3.3667,135.4833,77.0,85,100,2.68,overcast clouds
421,Berbera,SO,2021-03-29 22:14:32,10.4396,45.0143,79.11,71,57,3.67,broken clouds
422,Novosergiyevka,RU,2021-03-29 22:14:32,52.0934,53.6528,13.42,97,88,5.19,overcast clouds
423,Neuquen,AR,2021-03-29 22:11:29,-38.9516,-68.0591,80.6,24,0,4.61,clear sky
424,Suleja,NG,2021-03-29 22:14:33,9.1758,7.1808,85.48,21,18,2.8,few clouds
425,Wukari,NG,2021-03-29 22:14:33,7.85,9.7833,86.61,20,92,3.62,overcast clouds
426,Dolores Hidalgo,MX,2021-03-29 22:14:34,21.1561,-100.9308,80.01,37,75,1.01,broken clouds
427,Okhotsk,RU,2021-03-29 22:14:34,59.3833,143.3,15.94,91,100,5.12,overcast clouds
428,Gualaquiza,EC,2021-03-29 22:14:35,-3.4,-78.55,63.0,99,100,0.13,moderate rain
429,San Borja,BO,2021-03-29 22:14:35,-14.8167,-66.85,76.73,84,29,1.61,scattered clouds
430,Annau,TM,2021-03-29 22:14:35,37.8876,58.516,51.8,46,90,6.91,overcast clouds
431,Biak,ID,2021-03-29 22:14:36,-0.9131,122.8766,76.33,83,97,1.77,overcast clouds
432,Ginir,ET,2021-03-29 22:14:36,7.1333,40.7,62.22,55,84,4.45,broken clouds
433,Kjollefjord,NO,2021-03-29 22:14:36,70.9457,27.3465,32.0,80,0,13.8,clear sky
434,Lanxi,CN,2021-03-29 22:14:37,29.2195,119.477,67.12,97,100,2.3,light rain
435,Itacare,BR,2021-03-29 22:14:37,-14.2775,-38.9967,80.6,74,0,5.75,clear sky
436,Manado,ID,2021-03-29 22:14:37,1.487,124.8455,75.2,94,20,1.14,light rain
437,Pundaguitan,PH,2021-03-29 22:14:38,6.3711,126.1689,79.21,83,100,10.25,overcast clouds
438,Paulo Ramos,BR,2021-03-29 22:14:38,-4.2167,-45.1833,74.86,96,70,4.03,moderate rain
439,Sibolga,ID,2021-03-29 22:13:01,1.7427,98.7792,75.52,96,100,9.82,overcast clouds
440,Fjerritslev,DK,2021-03-29 22:14:39,57.0813,9.2664,48.2,93,90,19.57,overcast clouds
441,Parabel,RU,2021-03-29 22:14:39,58.6978,81.4825,9.72,96,100,9.86,overcast clouds
442,Isla Mujeres,MX,2021-03-29 22:10:05,21.2311,-86.731,84.2,65,40,12.66,scattered clouds
443,Ocampo,MX,2021-03-29 22:14:40,21.65,-101.5,86.0,50,99,4.14,overcast clouds
444,Jinchang,CN,2021-03-29 22:14:40,38.4953,102.1739,46.89,35,76,5.32,broken clouds
445,Whithorn,JM,2021-03-29 22:14:40,18.2604,-78.0378,82.99,74,75,17.27,broken clouds
446,Opuwo,NA,2021-03-29 22:14:40,-18.0607,13.84,70.2,66,65,4.25,light rain
447,Tukrah,LY,2021-03-29 22:14:41,32.5341,20.5791,56.97,75,1,10.25,clear sky
448,Tiarei,PF,2021-03-29 22:14:41,-17.5333,-149.3333,87.01,62,40,5.75,light rain
449,Bukan,IR,2021-03-29 22:14:42,36.521,46.2089,40.46,56,1,3.0,clear sky
450,Laredo,US,2021-03-29 22:10:30,27.5064,-99.5075,77.0,33,40,12.66,scattered clouds
451,Charlottetown,CA,2021-03-29 22:14:42,46.2352,-63.1267,37.4,81,75,21.85,broken clouds
452,Mbaiki,CF,2021-03-29 22:14:43,3.8678,17.9892,79.29,55,87,4.52,overcast clouds
453,Puerto Del Rosario,ES,2021-03-29 22:14:43,28.5004,-13.8627,66.2,77,0,5.75,clear sky
454,Hobyo,SO,2021-03-29 22:14:43,5.3505,48.5268,80.01,74,45,10.92,scattered clouds
455,Itoman,JP,2021-03-29 22:14:44,26.1247,127.6694,71.6,100,75,5.75,mist
456,Usinsk,RU,2021-03-29 22:14:44,65.9939,57.5281,32.77,99,100,12.33,light snow
457,Mecca,SA,2021-03-29 22:14:10,21.4267,39.8261,77.14,48,21,4.47,few clouds
458,Huaibei,CN,2021-03-29 22:14:45,33.9744,116.7917,47.95,38,4,8.03,clear sky
459,Barvinkove,UA,2021-03-29 22:14:45,48.9097,37.0205,35.69,77,8,7.25,clear sky
460,Ponta Do Sol,PT,2021-03-29 22:14:45,32.6667,-17.1,62.6,72,20,12.66,few clouds
461,Samfya,ZM,2021-03-29 22:14:46,-11.3649,29.5565,63.54,93,36,9.93,scattered clouds
462,Westport,US,2021-03-29 22:14:05,41.1415,-73.3579,53.01,33,2,1.99,clear sky
463,Merauke,ID,2021-03-29 22:14:46,-8.4667,140.3333,78.91,87,100,8.86,light rain
464,Bundibugyo,UG,2021-03-29 22:14:46,0.7414,30.0417,66.81,97,100,4.21,moderate rain
465,Zemio,CF,2021-03-29 22:14:47,5.0314,25.1361,72.52,34,32,3.02,scattered clouds
466,Praia Da Vitoria,PT,2021-03-29 22:12:49,38.7333,-27.0667,60.8,88,40,23.64,scattered clouds
467,Chapais,CA,2021-03-29 22:14:47,49.7834,-74.8492,19.4,63,75,8.05,light snow
468,Vyazemskiy,RU,2021-03-29 22:14:48,47.5378,134.7525,33.37,98,100,5.68,light snow
469,Hanna,CA,2021-03-29 22:14:48,51.6334,-111.9018,19.0,64,80,21.0,broken clouds
470,Quelimane,MZ,2021-03-29 22:14:48,-17.8786,36.8883,78.8,78,75,4.61,light rain
471,Sokolov,CZ,2021-03-29 22:14:49,50.1813,12.6401,51.8,43,0,6.91,clear sky
472,Ballina,AU,2021-03-29 22:14:49,-28.8667,153.5667,66.2,94,75,5.75,light rain
473,Asau,RO,2021-03-29 22:14:49,46.4333,26.4,39.2,60,0,10.36,clear sky
474,Alihe,CN,2021-03-29 22:14:50,50.5667,123.7167,20.91,92,8,3.67,clear sky
475,Itarema,BR,2021-03-29 22:14:50,-2.9248,-39.9167,78.37,82,57,7.25,broken clouds
476,Magadan,RU,2021-03-29 22:14:50,59.5667,150.8,16.95,77,100,7.67,overcast clouds
477,Rawson,AR,2021-03-29 22:14:51,-43.3002,-65.1023,67.44,51,5,16.28,clear sky
478,Ilhabela,BR,2021-03-29 22:14:51,-23.7781,-45.3581,79.23,87,19,3.18,few clouds
479,Flin Flon,CA,2021-03-29 22:14:03,54.7682,-101.865,17.6,86,90,18.41,heavy snow
480,Pascagoula,US,2021-03-29 22:14:52,30.3658,-88.5561,75.0,46,1,6.91,clear sky
481,Richards Bay,ZA,2021-03-29 22:14:52,-28.783,32.0377,65.89,83,62,4.88,broken clouds
482,Plettenberg Bay,ZA,2021-03-29 22:14:52,-34.0527,23.3716,65.44,78,3,6.06,clear sky
483,Bitung,ID,2021-03-29 22:14:53,1.4451,125.1824,75.2,94,20,1.14,few clouds
484,Beloha,MG,2021-03-29 22:14:53,-25.1667,45.05,68.38,84,0,4.41,clear sky
485,Kralendijk,BQ,2021-03-29 22:14:54,12.15,-68.2667,80.6,78,20,23.02,few clouds
486,Taungdwingyi,MM,2021-03-29 22:14:54,20.0167,95.55,75.54,43,0,6.24,clear sky
487,Rio Grande,BR,2021-03-29 22:14:54,-32.035,-52.0986,70.0,74,35,12.84,scattered clouds
488,Kurchum,KZ,2021-03-29 22:14:55,48.5722,83.6542,10.99,89,46,4.29,scattered clouds
489,Alvaraes,BR,2021-03-29 22:14:55,-3.2208,-64.8042,84.2,70,20,3.44,few clouds
490,Podor,MR,2021-03-29 22:14:55,16.6527,-14.9587,86.0,32,0,2.3,clear sky
491,Pilar,BR,2021-03-29 22:14:56,-9.5972,-35.9567,77.0,94,20,6.91,moderate rain
492,Drovyanaya,RU,2021-03-29 22:14:56,51.5833,113.0333,26.6,50,100,8.95,overcast clouds
493,Tigil,RU,2021-03-29 22:14:56,57.8,158.6667,19.18,83,100,4.85,overcast clouds
494,Chabahar,IR,2021-03-29 22:14:57,25.2919,60.643,80.56,56,100,1.03,overcast clouds
495,Paamiut,GL,2021-03-29 22:14:57,61.994,-49.6678,26.82,67,100,20.67,overcast clouds
496,Caruray,PH,2021-03-29 22:14:57,10.3094,119.0128,78.8,83,20,4.61,few clouds
497,Caucasia,CO,2021-03-29 22:14:58,7.9865,-75.1935,90.99,54,100,2.33,overcast clouds
498,Vao,NC,2021-03-29 22:14:58,-22.6667,167.4833,78.98,67,100,8.16,overcast clouds
499,Tabuk,PH,2021-03-29 22:14:59,17.4189,121.4443,71.15,85,10,2.8,clear sky
500,Teluk Nibung,ID,2021-03-29 22:14:59,3.001,99.8164,74.62,91,100,2.82,overcast clouds
501,Ankang,CN,2021-03-29 22:14:59,32.68,109.0172,60.84,75,66,3.87,broken clouds
502,Saint-Augustin,CA,2021-03-29 22:15:00,51.226,-58.6502,35.58,99,100,13.56,overcast clouds
503,Betanzos,ES,2021-03-29 22:15:00,43.2804,-8.2147,59.0,67,0,2.3,clear sky
504,Finschhafen,PG,2021-03-29 22:15:01,-6.6024,147.8681,82.53,73,91,8.97,overcast clouds
505,Warrnambool,AU,2021-03-29 22:15:03,-38.3833,142.4833,48.99,96,100,3.98,overcast clouds
506,Praia,CV,2021-03-29 22:15:03,14.9215,-23.5087,69.8,73,75,17.27,broken clouds
507,Alpena,US,2021-03-29 22:15:03,45.0617,-83.4327,48.0,42,1,14.97,clear sky
508,Jining,CN,2021-03-29 22:15:04,35.405,116.5814,47.3,42,0,4.72,clear sky
509,Saint-Joseph,RE,2021-03-29 22:15:04,-21.3667,55.6167,77.0,78,0,6.91,clear sky
510,Riyadh,SA,2021-03-29 22:10:40,24.6877,46.7219,66.2,19,0,5.75,clear sky
511,Srednekolymsk,RU,2021-03-29 22:15:04,67.45,153.6833,2.5,87,75,3.24,broken clouds
512,Mporokoso,ZM,2021-03-29 22:15:05,-9.3727,30.125,61.07,96,100,7.65,overcast clouds
513,Adrar,MR,2021-03-29 22:15:05,20.5022,-10.0711,81.32,9,69,3.56,broken clouds
514,Vangaindrano,MG,2021-03-29 22:15:06,-23.35,47.6,71.33,90,7,5.57,clear sky
515,Smithers,CA,2021-03-29 22:15:06,54.7804,-127.1743,37.4,56,90,8.05,overcast clouds
516,Middleton,GB,2021-03-29 22:15:06,53.55,-2.2,52.0,74,10,3.0,clear sky
517,Valparaiso,CL,2021-03-29 22:11:18,-33.0393,-71.6273,59.0,82,40,3.44,scattered clouds
518,Batemans Bay,AU,2021-03-29 22:15:08,-35.7167,150.1833,57.99,70,41,3.0,scattered clouds
519,Kawalu,ID,2021-03-29 22:15:09,-7.3817,108.2082,72.61,94,90,1.61,light rain
520,Sabha,LY,2021-03-29 22:15:10,27.0377,14.4283,62.89,26,16,13.69,few clouds
521,Kodinsk,RU,2021-03-29 22:15:10,58.6881,99.1844,20.66,99,99,2.21,overcast clouds
522,Tessalit,ML,2021-03-29 22:15:10,20.1986,1.0114,75.4,8,28,11.48,scattered clouds
523,Kimbe,PG,2021-03-29 22:15:11,-5.5502,150.1429,79.84,82,73,2.68,broken clouds
524,Kasongo-Lunda,CD,2021-03-29 22:15:11,-6.4667,16.8167,68.99,96,87,0.27,overcast clouds
525,Lander,US,2021-03-29 22:11:10,42.833,-108.7307,37.4,22,1,26.46,clear sky
526,Kosh-Agach,RU,2021-03-29 22:15:12,50.0,88.6667,3.63,87,13,4.0,few clouds
527,Namatanai,PG,2021-03-29 22:15:12,-3.6667,152.4333,82.38,73,99,6.2,overcast clouds
528,Wanaka,NZ,2021-03-29 22:15:13,-44.7,169.15,57.13,75,100,1.45,overcast clouds
529,Dwarka,IN,2021-03-29 22:15:13,22.2394,68.9678,78.21,82,5,13.22,clear sky
530,Taldan,RU,2021-03-29 22:15:13,53.6667,124.8,15.49,84,7,5.99,clear sky
531,Tuatapere,NZ,2021-03-29 22:15:14,-46.1333,167.6833,57.99,97,100,1.01,overcast clouds
532,Half Moon Bay,US,2021-03-29 22:15:14,37.4636,-122.4286,66.0,41,1,11.5,clear sky
533,Sungai Besar,MY,2021-03-29 22:15:14,3.6746,100.9867,77.0,94,20,2.3,few clouds
534,Viedma,AR,2021-03-29 22:15:15,-40.8135,-62.9967,67.1,53,36,13.82,scattered clouds
535,Ca Mau,VN,2021-03-29 22:15:15,9.1769,105.15,75.52,93,20,2.91,few clouds
536,Songkhla,TH,2021-03-29 22:15:15,6.8333,100.6667,77.0,100,75,2.46,broken clouds
537,Boromo,BF,2021-03-29 22:15:16,11.75,-2.9333,85.08,12,3,6.91,clear sky
538,Yulara,AU,2021-03-29 22:15:16,-25.2406,130.9889,66.2,52,0,8.05,clear sky
539,Luang Prabang,LA,2021-03-29 22:15:17,19.8856,102.1347,74.44,59,64,1.01,broken clouds
540,Kutum,SD,2021-03-29 22:15:17,14.2,24.6667,64.4,11,0,14.92,clear sky
541,The Pas,CA,2021-03-29 22:15:17,53.8251,-101.2541,23.0,80,90,14.97,snow
542,Zaoyang,CN,2021-03-29 22:15:18,32.1272,112.7542,54.0,77,100,4.25,overcast clouds
543,Mangrol,IN,2021-03-29 22:15:18,21.1167,70.1167,76.82,79,3,10.42,clear sky
544,Crispiano,IT,2021-03-29 22:15:18,40.6058,17.2303,57.99,55,16,1.99,few clouds
545,Oksfjord,NO,2021-03-29 22:15:19,70.2396,22.3479,35.6,75,90,8.05,overcast clouds
546,Moron,AR,2021-03-29 22:15:19,-34.6534,-58.6198,72.0,64,0,3.44,clear sky
547,Gizo,SB,2021-03-29 22:15:20,-8.103,156.8419,83.28,71,87,1.81,overcast clouds
548,Genhe,CN,2021-03-29 22:15:20,50.7833,121.5167,13.96,97,56,1.79,broken clouds
549,Solnechnyy,RU,2021-03-29 22:15:20,50.7214,136.6319,27.39,89,88,7.67,overcast clouds
550,Bow Island,CA,2021-03-29 22:15:21,49.8668,-111.3684,26.6,54,83,18.41,broken clouds
551,Yeppoon,AU,2021-03-29 22:14:52,-23.1333,150.7333,73.4,73,10,6.91,clear sky
552,Bulawayo,ZW,2021-03-29 22:15:21,-20.15,28.5833,57.67,79,0,8.63,clear sky
553,Porto Velho,BR,2021-03-29 22:15:22,-8.7619,-63.9039,80.6,94,40,1.14,scattered clouds
554,Hammerfest,NO,2021-03-29 22:15:22,70.6634,23.6821,35.6,80,40,8.05,scattered clouds
555,Ambunti,PG,2021-03-29 22:15:22,-4.2365,142.8448,75.96,93,100,0.92,overcast clouds
556,Joshimath,IN,2021-03-29 22:15:23,30.5667,79.5667,48.85,57,50,5.66,scattered clouds
557,Daugavpils,LV,2021-03-29 22:15:23,55.8833,26.5333,43.57,91,100,10.4,overcast clouds
558,Xinmin,CN,2021-03-29 22:15:23,41.9908,122.8253,26.6,74,0,2.24,clear sky
559,Antanifotsy,MG,2021-03-29 22:15:24,-19.65,47.3167,56.37,96,22,2.06,few clouds
560,Bati,ET,2021-03-29 22:15:24,11.1833,40.0167,65.62,29,9,3.56,clear sky
561,Batagay,RU,2021-03-29 22:15:24,67.6333,134.6333,-3.01,99,94,2.19,overcast clouds
562,Sabratah,LY,2021-03-29 22:15:25,32.7933,12.4885,62.15,67,0,9.33,clear sky
563,Shenzhen,CN,2021-03-29 22:14:16,22.5455,114.0683,77.0,99,21,5.73,few clouds
564,Vaxjo,SE,2021-03-29 22:15:25,56.8777,14.8091,48.2,100,90,11.5,mist
565,Mount Gambier,AU,2021-03-29 22:15:26,-37.8333,140.7667,55.4,94,90,1.92,overcast clouds
566,Putina,PE,2021-03-29 22:15:26,-15.4667,-69.4333,48.04,70,53,5.93,broken clouds
567,Nogliki,RU,2021-03-29 22:15:26,51.8333,143.1667,31.48,99,100,1.45,overcast clouds
568,Gardner,US,2021-03-29 22:15:27,42.5751,-71.9981,48.2,23,1,18.41,clear sky
569,Chicama,PE,2021-03-29 22:15:27,-7.8447,-79.1469,71.6,83,40,9.22,fog
570,Grabs,CH,2021-03-29 22:15:28,47.1825,9.4439,46.0,87,0,2.3,clear sky
571,Zrece,SI,2021-03-29 22:14:12,46.3822,15.3792,51.01,66,99,1.99,overcast clouds
572,Bose,IT,2021-03-29 22:15:28,45.4612,8.0137,59.0,64,13,4.47,few clouds
573,Surgut,RU,2021-03-29 22:15:28,61.25,73.4167,-2.2,84,0,2.24,clear sky
574,Yerbogachen,RU,2021-03-29 22:15:29,61.2767,108.0108,14.43,97,100,1.86,overcast clouds
575,Vardo,NO,2021-03-29 22:15:29,70.3705,31.1107,35.6,80,75,9.22,broken clouds
576,Vagay,RU,2021-03-29 22:15:29,57.9375,69.0217,2.84,98,45,3.06,scattered clouds
577,Galesong,ID,2021-03-29 22:15:30,-5.3166,119.3661,77.0,94,20,3.44,few clouds
578,Krasnohrad,UA,2021-03-29 22:15:30,49.3814,35.4402,35.71,76,1,6.87,clear sky
579,Kulhudhuffushi,MV,2021-03-29 22:15:30,6.6221,73.07,82.42,72,100,12.75,overcast clouds
580,Laguna De Perlas,NI,2021-03-29 22:15:31,12.3429,-83.6712,82.4,74,75,9.22,broken clouds
581,Port Lincoln,AU,2021-03-29 22:15:31,-34.7333,135.8667,65.08,80,2,5.61,clear sky
582,Nanakuli,US,2021-03-29 22:15:31,21.3906,-158.1547,82.4,65,90,11.5,overcast clouds
583,Soyo,AO,2021-03-29 22:15:32,-6.1349,12.3689,80.55,79,100,7.92,overcast clouds
584,Mocuba,MZ,2021-03-29 22:15:32,-16.8392,36.9856,68.16,95,44,4.16,scattered clouds
585,Sur,OM,2021-03-29 22:15:33,22.5667,59.5289,83.43,38,26,6.29,scattered clouds
586,Melfi,IT,2021-03-29 22:15:33,40.9965,15.6514,44.6,61,0,9.22,clear sky
587,Luanda,AO,2021-03-29 22:13:19,-8.8368,13.2343,80.6,78,20,4.61,few clouds
588,Coahuayana,MX,2021-03-29 22:15:33,18.7333,-103.6833,82.4,36,75,7.54,broken clouds
589,Zhangye,CN,2021-03-29 22:15:18,38.9342,100.4517,47.03,30,88,7.58,overcast clouds
590,Xining,CN,2021-03-29 22:15:34,36.6167,101.7667,45.95,39,100,1.72,overcast clouds
591,Kuching,MY,2021-03-29 22:15:34,1.55,110.3333,75.2,100,40,2.3,light rain
592,Ambatofinandrahana,MG,2021-03-29 22:15:35,-20.55,46.8,58.73,89,35,2.39,scattered clouds
593,Shunyi,CN,2021-03-29 22:15:35,40.125,116.6453,45.0,60,0,2.24,clear sky
594,Port Blair,IN,2021-03-29 22:15:36,11.6667,92.75,80.37,78,94,3.58,overcast clouds
595,Yantal,RU,2021-03-29 22:15:45,56.8471,105.2542,29.86,96,100,7.85,light snow
596,Along,IN,2021-03-29 22:15:46,28.1667,94.7667,57.16,36,5,1.86,clear sky
597,Kerchevskiy,RU,2021-03-29 22:15:47,59.946,56.2884,30.74,98,100,3.67,overcast clouds
598,Myitkyina,MM,2021-03-29 22:15:48,25.3833,97.4,62.11,34,2,1.83,clear sky
599,Korhogo,CI,2021-03-29 22:15:49,9.45,-5.6333,85.95,31,21,4.47,few clouds
600,Wonthaggi,AU,2021-03-29 22:15:49,-38.6044,145.5913,55.0,94,97,3.56,overcast clouds
601,Windhoek,NA,2021-03-29 22:15:50,-22.5594,17.0832,62.01,77,90,16.11,light rain
602,Penzance,GB,2021-03-29 22:15:50,50.1186,-5.5371,46.99,100,40,17.27,scattered clouds
603,Mananjary,MG,2021-03-29 22:15:51,-21.2167,48.3333,73.94,87,26,5.91,scattered clouds
604,Palmer,US,2021-03-29 22:15:51,42.1584,-72.3287,46.99,31,20,14.97,few clouds
605,Uyuni,BO,2021-03-29 22:15:52,-20.4597,-66.825,59.2,22,9,9.28,clear sky
606,Katobu,ID,2021-03-29 22:15:52,-4.9408,122.5276,75.07,92,100,3.02,overcast clouds
607,Neyshabur,IR,2021-03-29 22:15:52,36.2133,58.7958,41.5,56,7,3.69,clear sky
608,Naantali,FI,2021-03-29 22:15:53,60.4674,22.0243,41.0,100,90,10.36,overcast clouds
609,Kiama,AU,2021-03-29 22:15:53,-34.6833,150.8667,64.99,71,66,1.99,broken clouds
610,Amiens,FR,2021-03-29 22:15:53,49.9,2.3,53.6,58,0,4.61,clear sky
611,Necochea,AR,2021-03-29 22:15:54,-38.5473,-58.7368,62.01,88,23,1.01,few clouds
612,Namwala,ZM,2021-03-29 22:15:54,-15.7504,26.4384,60.64,95,4,4.25,clear sky
613,Alta Floresta,BR,2021-03-29 22:15:54,-9.8756,-56.0861,74.91,93,42,4.5,scattered clouds
614,Leh,IN,2021-03-29 22:15:55,34.1667,77.5833,29.93,79,70,5.61,broken clouds
615,Glinishchevo,RU,2021-03-29 22:15:55,53.3042,34.0652,30.2,91,97,7.07,overcast clouds
616,Svetlogorsk,BY,2021-03-29 22:15:55,52.6333,29.7333,41.27,79,100,5.39,overcast clouds
617,Bilasipara,IN,2021-03-29 22:15:56,26.232,90.2347,72.19,51,4,5.93,clear sky
618,Hauterive,FR,2021-03-29 22:15:56,46.0901,3.4459,53.6,43,0,4.61,clear sky
619,Mehamn,NO,2021-03-29 22:15:57,71.0357,27.8492,32.0,80,0,13.8,clear sky
620,Talcahuano,CL,2021-03-29 22:15:57,-36.7167,-73.1167,59.0,82,90,5.75,overcast clouds
621,Arman,RU,2021-03-29 22:15:57,59.7,150.1667,16.75,78,100,5.39,overcast clouds
622,Tromso,NO,2021-03-29 22:15:13,69.6496,18.957,32.0,80,0,3.44,clear sky
623,Lagos,NG,2021-03-29 22:11:11,6.5833,3.75,80.56,84,58,6.13,broken clouds
624,Antofagasta,CL,2021-03-29 22:14:11,-23.65,-70.4,64.4,72,0,14.97,clear sky
625,Salmas,IR,2021-03-29 22:15:58,38.1973,44.7653,32.0,74,0,2.3,clear sky
626,Muisne,EC,2021-03-29 22:15:59,0.6,-80.0333,80.6,89,75,4.61,light rain
627,Jambi,ID,2021-03-29 22:15:59,-1.6,103.6167,72.95,97,75,1.23,broken clouds
628,Dustlik,UZ,2021-03-29 22:12:20,40.5247,68.0358,44.53,69,94,3.58,overcast clouds
629,Dargaville,NZ,2021-03-29 22:15:59,-35.9333,173.8833,73.0,74,66,7.87,broken clouds
630,Danville,US,2021-03-29 22:15:15,36.586,-79.395,62.6,25,1,3.09,clear sky
631,Agirish,RU,2021-03-29 22:16:00,61.9247,63.0231,21.6,90,96,8.46,overcast clouds
632,Tremedal,BR,2021-03-29 22:16:00,-14.9758,-41.4108,81.5,31,48,4.92,scattered clouds
633,Sao Felix Do Xingu,BR,2021-03-29 22:16:01,-6.6447,-51.995,75.27,91,85,2.62,overcast clouds
634,Koltsovo,RU,2021-03-29 22:16:01,54.9376,83.1825,23.0,93,90,13.42,light snow
635,Cururupu,BR,2021-03-29 22:16:02,-1.8283,-44.8683,75.31,95,99,3.15,overcast clouds
636,Wajima,JP,2021-03-29 22:16:02,37.4,136.9,52.14,78,97,7.18,overcast clouds
637,Sam Roi Yot,TH,2021-03-29 22:16:02,12.2708,99.872,76.86,82,66,5.17,broken clouds
638,Warmbad,NA,2021-03-29 22:16:03,-28.45,18.7333,75.72,32,6,7.67,clear sky
639,Fairbanks,US,2021-03-29 22:16:03,64.8378,-147.7164,33.01,80,90,4.61,overcast clouds
640,Soe,ID,2021-03-29 22:16:03,-9.8607,124.284,65.61,93,100,4.79,moderate rain
641,Vestmanna,FO,2021-03-29 22:16:04,62.1564,-7.1664,39.2,75,75,2.3,broken clouds
642,Alice Springs,AU,2021-03-29 22:16:04,-23.7,133.8833,62.6,59,0,1.14,clear sky
643,Yanam,IN,2021-03-29 22:16:04,16.7333,82.2167,74.05,96,13,1.68,few clouds
644,Simdega,IN,2021-03-29 22:16:05,22.6167,84.5167,74.79,17,12,2.8,few clouds
645,Stabat,ID,2021-03-29 22:16:05,3.761,98.4513,77.0,100,40,3.44,mist
646,Ayan,RU,2021-03-29 22:16:05,56.45,138.1667,23.68,94,100,16.87,snow
647,Dzilam Gonzalez,MX,2021-03-29 22:16:06,21.2833,-88.9333,83.91,55,52,10.36,broken clouds
648,Belmonte,BR,2021-03-29 22:16:06,-15.8631,-38.8828,78.8,73,0,6.91,clear sky
649,Cobija,BO,2021-03-29 22:16:06,-11.0267,-68.7692,80.6,78,75,5.75,broken clouds
650,Kozhanka,UA,2021-03-29 22:16:07,49.9793,29.7381,45.0,75,0,2.24,clear sky
651,Gambela,ET,2021-03-29 22:16:07,8.25,34.5833,84.09,35,45,3.22,scattered clouds
652,Mayo,US,2021-03-29 22:16:08,38.8876,-76.5119,59.0,35,1,9.22,clear sky
653,Tautira,PF,2021-03-29 22:16:08,-17.7333,-149.15,87.01,62,40,5.75,light rain
654,Baghmara,IN,2021-03-29 22:16:08,23.795,86.2085,76.91,18,1,5.26,clear sky
655,Santa Vitoria Do Palmar,BR,2021-03-29 22:14:10,-33.5189,-53.3681,66.11,90,13,12.19,few clouds
656,Sabang,ID,2021-03-29 22:16:09,5.8933,95.3214,80.38,78,100,12.08,moderate rain
657,Siedlce,PL,2021-03-29 22:16:09,52.1677,22.2901,46.99,88,100,7.63,light rain
658,Kloulklubed,PW,2021-03-29 22:16:09,7.0419,134.2556,78.8,89,75,8.52,broken clouds
659,Valdivia,CL,2021-03-29 22:13:25,-39.8142,-73.2459,71.6,56,84,5.75,broken clouds
660,Antigonish,CA,2021-03-29 22:11:48,45.6169,-61.9986,37.99,87,69,25.01,light rain
661,Naryan-Mar,RU,2021-03-29 22:16:10,67.6713,53.087,33.82,96,100,12.15,overcast clouds
662,Demirci,TR,2021-03-29 22:16:10,39.0461,28.6589,37.72,80,51,6.4,broken clouds
663,Cabildo,AR,2021-03-29 22:16:11,-38.4842,-61.8954,71.01,37,22,1.01,few clouds
664,Yerofey Pavlovich,RU,2021-03-29 22:16:11,53.9667,121.9667,7.61,93,9,4.25,clear sky
665,Bauta,CU,2021-03-29 22:16:11,22.9828,-82.5464,86.0,51,20,14.97,few clouds
666,Ravar,IR,2021-03-29 22:16:12,31.2656,56.8055,53.1,21,0,4.47,clear sky
667,Tortoli,IT,2021-03-29 22:16:12,39.9256,9.6572,55.4,94,0,8.05,clear sky
668,Padang,ID,2021-03-29 22:16:13,-0.9492,100.3543,73.4,100,40,4.61,scattered clouds
669,Kikwit,CD,2021-03-29 22:16:13,-5.041,18.8162,71.38,91,100,2.1,overcast clouds
670,Naze,JP,2021-03-29 22:12:29,28.3667,129.4833,71.6,88,75,10.36,broken clouds
671,Quesnel,CA,2021-03-29 22:16:13,52.9999,-122.5029,35.6,41,75,2.3,broken clouds
672,Verkhnevilyuysk,RU,2021-03-29 22:16:14,63.4453,120.3167,1.33,99,98,2.62,overcast clouds
673,Hirara,JP,2021-03-29 22:16:14,24.8,125.2833,75.2,94,75,11.5,broken clouds
674,Kuala Terengganu,MY,2021-03-29 22:16:15,5.3302,103.1408,77.0,94,20,2.3,few clouds
675,Beringovskiy,RU,2021-03-29 22:12:16,63.05,179.3167,13.03,87,100,19.53,overcast clouds
676,Iskitim,RU,2021-03-29 22:16:15,54.6366,83.3045,23.0,93,90,13.42,light snow
677,Chiredzi,ZW,2021-03-29 22:16:16,-21.05,31.6667,62.65,83,0,1.61,clear sky
678,Kismayo,SO,2021-03-29 22:16:16,-0.3582,42.5454,80.17,73,45,13.73,scattered clouds
679,Ramganj,BD,2021-03-29 22:16:16,23.1,90.85,75.11,96,22,6.87,few clouds
680,Sao Miguel Do Araguaia,BR,2021-03-29 22:16:17,-13.275,-50.1628,79.38,65,26,2.53,scattered clouds
681,Llanes,ES,2021-03-29 22:16:17,43.4198,-4.7549,63.0,61,100,6.87,overcast clouds
682,Taoudenni,ML,2021-03-29 22:16:18,22.6783,-3.9836,83.07,5,78,11.39,broken clouds
683,Millau,FR,2021-03-29 22:16:18,44.0833,2.9167,50.0,57,0,8.05,clear sky
684,Capao Da Canoa,BR,2021-03-29 22:16:18,-29.7456,-50.0097,74.91,59,49,8.99,scattered clouds
